[
  {
    "id": "0",
    "name": "Group name",
    "link_facebook": "Facebook group/website (Link/URL) Please only provide one link",
    "location_name": "Location",
    "location_coord": { "lat": "37.0908236", "lng": "-95.7127471" }
  },
  {
    "id": "1",
    "name": "Carrickfergus Mutual Aid",
    "link_facebook": "https://m.facebook.com/groups/224777885338051/?ref=group_browse",
    "location_name": " Carrickfergus Northern Ireland",
    "location_coord": { "lat": "54.7261871", "lng": "-5.8101207" }
  },
  {
    "id": "2",
    "name": "Holy Trinity, Prestwood",
    "link_facebook": "https://www.facebook.com/htprestwood/",
    "location_name": "134 Wycombe Road, Prestwood, BUCKS HP16 0HJ",
    "location_coord": { "lat": "51.6891537", "lng": "-0.7361073" }
  },
  {
    "id": "3",
    "name": "Frome Road layby COVID-19 Community Support (Trowbridge) ",
    "link_facebook": "https://www.facebook.com/groups/4483812821632630/",
    "location_name": "151-179a Frome Road (odd numbers only), Trowbridge ",
    "location_coord": { "lat": "51.310461", "lng": "-2.2231608" }
  },
  {
    "id": "4",
    "name": "Abbey Wood Covid-19 Mutual Aid Group",
    "link_facebook": "https://www.facebook.com/groups/3194249527265948/",
    "location_name": "Abbey Wood, London",
    "location_coord": { "lat": "51.4926116", "lng": "0.1188182" }
  },
  {
    "id": "5",
    "name": "Abbots Langley Covid-19 Mutual Aid Group",
    "link_facebook": "https://www.facebook.com/groups/821319028389844/",
    "location_name": "Abbots Langley ",
    "location_coord": { "lat": "51.707275", "lng": "-0.4183259" }
  },
  {
    "id": "6",
    "name": "Abercegir Covid Support Group",
    "link_facebook": "https://www.facebook.com/groups/233395261131422/",
    "location_name": "Abercegir, Machynlleth",
    "location_coord": { "lat": "52.600268", "lng": "-3.767513" }
  },
  {
    "id": "7",
    "name": "Aberdeen City Mutual Aid",
    "link_facebook": "https://www.facebook.com/groups/2550692921870646/?notif_id=1584284045591587&notif_t=groups_member_joined",
    "location_name": "Aberdeen City",
    "location_coord": { "lat": "57.149717", "lng": "-2.094278" }
  },
  {
    "id": "8",
    "name": "Aberdeenshire Mutual Aid",
    "link_facebook": "https://www.facebook.com/groups/aberdeenshire.mutual.aid/",
    "location_name": "Aberdeenshire",
    "location_coord": { "lat": "57.28687230000001", "lng": "-2.3815684" }
  },
  {
    "id": "9",
    "name": "Ceredigion Coronavirus Support",
    "link_facebook": "https://www.facebook.com/groups/CeredigionCoronavirusSupport/",
    "location_name": "Aberystwyth, Ceredigion",
    "location_coord": { "lat": "52.41530299999999", "lng": "-4.08292" }
  },
  {
    "id": "10",
    "name": "Abingdon Coronavirus Community Response",
    "link_facebook": "https://www.facebook.com/groups/2625695837712362",
    "location_name": "Abingdon, Oxfordshire",
    "location_coord": { "lat": "51.67078", "lng": "-1.2879529" }
  },
  {
    "id": "11",
    "name": "Abingdon Corona virus community response",
    "link_facebook": "https://www.facebook.com/groups/2625695837712362/?ref=share",
    "location_name": "Abingdon, Oxfordshire",
    "location_coord": { "lat": "51.67078", "lng": "-1.2879529" }
  },
  {
    "id": "12",
    "name": "Hyndburn COVID-19 Mutual Aid Group",
    "link_facebook": "https://www.facebook.com/groups/1082081112124937/?ref=share",
    "location_name": "Accrington",
    "location_coord": { "lat": "53.753609", "lng": "-2.37218" }
  },
  {
    "id": "13",
    "name": "Achiltibuie Self-Isolation Support Group",
    "link_facebook": "https://www.facebook.com/groups/226309328564623/",
    "location_name": "Achiltibuie",
    "location_coord": { "lat": "58.02480999999999", "lng": "-5.352271" }
  },
  {
    "id": "14",
    "name": "Acton Gardens Covid 19 Support Group",
    "link_facebook": "https://chat.whatsapp.com/Fuua4g9mMOvGePaAoVo5Iq",
    "location_name": "Acton",
    "location_coord": { "lat": "42.4850931", "lng": "-71.43284" }
  },
  {
    "id": "15",
    "name": "Acton Bridge Mutual Aid",
    "link_facebook": "https://www.facebook.com/groups/1620354834908041/",
    "location_name": "Acton Bridge, Cheshire",
    "location_coord": { "lat": "53.2738226", "lng": "-2.6064003" }
  },
  {
    "id": "16",
    "name": "Acton COVID-19 Mutual Aid",
    "link_facebook": "https://actonnotebook.com/forums/forum/corona-virus/",
    "location_name": "Acton, London",
    "location_coord": { "lat": "51.50837199999999", "lng": "-0.27444" }
  },
  {
    "id": "17",
    "name": "Aldbrough COVID19-mutual aid",
    "link_facebook": "https://www.facebook.com/groups/135848384523068/?ref=share",
    "location_name": "Aldbrough, East Riding hull ",
    "location_coord": { "lat": "53.8285919", "lng": "-0.1122773" }
  },
  {
    "id": "18",
    "name": "Aldershot Response to Coronavirus",
    "link_facebook": "https://www.facebook.com/groups/795015974344125/?ref=share",
    "location_name": "Aldershot, Hampshire",
    "location_coord": { "lat": "51.248366", "lng": "-0.7557509" }
  },
  {
    "id": "19",
    "name": "Alex' Ward COVID group",
    "link_facebook": "https://www.facebook.com/groups/201573454403978/",
    "location_name": "Alexandra Park, London Borough of Haringey",
    "location_coord": { "lat": "51.5933167", "lng": "-0.1291847" }
  },
  {
    "id": "20",
    "name": "Alfreton’s Support Network (Covid 19)",
    "link_facebook": "https://www.facebook.com/groups/3837521986288001/?ref=share",
    "location_name": "Alfreton, Derbyshire ",
    "location_coord": { "lat": "53.09744999999999", "lng": "-1.382256" }
  },
  {
    "id": "21",
    "name": "Alltwen Covid19 Community Volunteers ",
    "link_facebook": "https://www.facebook.com/groups/1098155540582789/",
    "location_name": "Alltwen, Pontardawe ",
    "location_coord": { "lat": "51.7143029", "lng": "-3.8435953" }
  },
  {
    "id": "22",
    "name": "Almondbank Terrace coronavirus resilience group",
    "link_facebook": "https://nextdoor.co.uk/g/72cja4r1h/",
    "location_name": "Almondbank Terrace, Edinburgh EH11 1SR",
    "location_coord": { "lat": "55.9319984", "lng": "-3.2311834" }
  },
  {
    "id": "23",
    "name": "Solidarity Against Coronavirus",
    "link_facebook": "https://www.facebook.com/groups/solidarityagainstcoronavirus/",
    "location_name": "Almondbury Huddersfield",
    "location_coord": { "lat": "53.626571", "lng": "-1.748167" }
  },
  {
    "id": "24",
    "name": "Covid-19 Mutual Aid ALNMOUTH ",
    "link_facebook": "https://www.facebook.com/groups/206478147238207/?ref=share",
    "location_name": "Alnmouth ",
    "location_coord": { "lat": "55.3902223", "lng": "-1.6129047" }
  },
  {
    "id": "25",
    "name": "Mutual Aid Alnwick",
    "link_facebook": "https://www.facebook.com/groups/646477589487984/",
    "location_name": "Alnwick",
    "location_coord": { "lat": "55.412744", "lng": "-1.706299" }
  },
  {
    "id": "26",
    "name": "Alnwick Town Council -Covid-19 Mutual Aid UK",
    "link_facebook": "https://www.facebook.com/search/top/?q=alnwick%20town%20council%20-%20covid-19%20mutual%20aid%20uk&epa=SEARCH_BOX",
    "location_name": "Alnwick, Northumberland",
    "location_coord": { "lat": "55.412744", "lng": "-1.706299" }
  },
  {
    "id": "27",
    "name": "Mutual Aid Covid 19 - Alresford, Hampshire",
    "link_facebook": "https://www.facebook.com/groups/510813626464105/",
    "location_name": "Alresford, Hampshire",
    "location_coord": { "lat": "51.0856236", "lng": "-1.1655575" }
  },
  {
    "id": "28",
    "name": "Alsager Coronavirus Support",
    "link_facebook": "https://www.facebook.com/groups/821890751625803/?multi_permalinks=824416384706573%2C824392398042305%2C823647324783479%2C824151408066404%2C824143828067162&notif_id=1584399681346248&notif_t=group_activity",
    "location_name": "Alsager",
    "location_coord": { "lat": "42.3371409", "lng": "-83.4766313" }
  },
  {
    "id": "29",
    "name": "Alston Moor Covid-19 Forum",
    "link_facebook": "https://www.facebook.com/groups/amcomsupport/",
    "location_name": "Alston Moor, Cumbria, CA9 3RF",
    "location_coord": { "lat": "54.8122859", "lng": "-2.4406914" }
  },
  {
    "id": "30",
    "name": "Alstonefield Parish Covid-19 Action & Support Group",
    "link_facebook": "https://www.facebook.com/groups/614475112439114/",
    "location_name": "Alstonefield, Ashbourne",
    "location_coord": { "lat": "53.097204", "lng": "-1.806568" }
  },
  {
    "id": "31",
    "name": "Alvingham, community support group",
    "link_facebook": "http://www.alvinghamvillage.co.uk/",
    "location_name": "Alvingham, louth, lincolnshire",
    "location_coord": { "lat": "53.4004239", "lng": "0.04922390000000001" }
  },
  {
    "id": "32",
    "name": "Amber Valley Coronavirus Volunteer Group",
    "link_facebook": "https://www.facebook.com/groups/617786629066175/?ref=share",
    "location_name": "Amber Valley (entire area)",
    "location_coord": { "lat": "42.871047", "lng": "-85.68452549999999" }
  },
  {
    "id": "33",
    "name": "yourAmersham CoronaVirus Help",
    "link_facebook": "https://www.facebook.com/search/top/?q=youramersham%20coronavirus%20help&epa=SEARCH_BOX",
    "location_name": "Amersham, Buckinghamshire (not including Little Chalfont)",
    "location_coord": { "lat": "51.6693383", "lng": "-0.5662178" }
  },
  {
    "id": "34",
    "name": "Amesbury Corona Community Hub",
    "link_facebook": "https://www.amesburyhub.com",
    "location_name": "Amesbury, Wiltshire, UK SP4 7HA",
    "location_coord": { "lat": "51.1709736", "lng": "-1.7826673" }
  },
  {
    "id": "35",
    "name": "Amotherby and Swinton Covid-19 Mutual Aid",
    "link_facebook": "https://www.facebook.com/Amotherby-and-Swinton-Covid-19-Mutual-Aid-1297723156925234/?ref=page_internal",
    "location_name": "Amotherby",
    "location_coord": { "lat": "54.152455", "lng": "-0.847165" }
  },
  {
    "id": "36",
    "name": "Amotherby and Swinton Covid-19 Mutual Aid",
    "link_facebook": "https://www.facebook.com/Amotherby-and-Swinton-Covid-19-Mutual-Aid-1297723156925234/?__tn__=%2Cd%2CP-R&eid=ARDeFZRa1KMTe0M1FhHw6KzN2-RAXVuEoDoQnxtUbx2n-4l-xCdAh5Fh48_BvKasxvogsMY_QW5dw9CB",
    "location_name": "Amotherby",
    "location_coord": { "lat": "54.152455", "lng": "-0.847165" }
  },
  {
    "id": "37",
    "name": "Covid 19 Mutual Aid Môn",
    "link_facebook": "https://www.facebook.com/groups/205528177434085/?ref=share",
    "location_name": "Anglesey",
    "location_coord": { "lat": "53.265325", "lng": "-4.429140299999999" }
  },
  {
    "id": "38",
    "name": "Antrim Mansions",
    "link_facebook": "https://www.facebook.com/groups/158930665217630/",
    "location_name": "Antrim Road, Camden",
    "location_coord": { "lat": "51.5472501", "lng": "-0.1615518" }
  },
  {
    "id": "39",
    "name": "Appleshaw, Redenham and Clanville",
    "link_facebook": "https://www.facebook.com/groups/arcmutualaid",
    "location_name": "Appleshaw, Redenham and Clanville, Hants",
    "location_coord": { "lat": "51.2473567", "lng": "-1.5765069" }
  },
  {
    "id": "41",
    "name": "Coronavirus support in Ascot",
    "link_facebook": "https://www.facebook.com/Coronavirus-Support-in-Ascot-100298861613991/",
    "location_name": "Ascot, Berkshire",
    "location_coord": { "lat": "51.4062365", "lng": "-0.6755624" }
  },
  {
    "id": "42",
    "name": "Corona Virus Community care (Ashford Kent)",
    "link_facebook": "https://www.facebook.com/groups/226739368694621/permalink/227151331986758/",
    "location_name": "Ashford",
    "location_coord": { "lat": "32.8272973", "lng": "-117.1418509" }
  },
  {
    "id": "43",
    "name": "Ashford In The Water Corona Help",
    "link_facebook": "https://m.facebook.com/Ashford-In-The-Water-Coronavirus-Help-Mutual-Aid-106386210995033/",
    "location_name": "Ashford, Derbyshire",
    "location_coord": { "lat": "53.2345944", "lng": "-1.7187511" }
  },
  {
    "id": "44",
    "name": "Assynt Covid-19 Mutual Aid",
    "link_facebook": "https://www.facebook.com/groups/895244530910943/",
    "location_name": "Assynt, North-West Highlands, Scotland",
    "location_coord": { "lat": "58.1", "lng": "-5.133333299999999" }
  },
  {
    "id": "45",
    "name": "Aston Weston Support Group",
    "link_facebook": "https://www.facebook.com/groups/687079435364313/?ref=share",
    "location_name": "Aston-on-Trent and Weston-on-Trent ",
    "location_coord": { "lat": "52.8486033", "lng": "-1.401343" }
  },
  {
    "id": "46",
    "name": "Astwood Bank Neighbours",
    "link_facebook": "https://m.facebook.com/groups/2964068173688494/?ref=group_browse",
    "location_name": "Astwood Bank, Worcestershire",
    "location_coord": { "lat": "52.259771", "lng": "-1.937217" }
  },
  {
    "id": "47",
    "name": "Austwick Area Covid 19 Mutual Aid",
    "link_facebook": "https://www.facebook.com/Austwick-Area-Covid-19-Mutual-Aid-111837480443518/?view_public_for=111837480443518",
    "location_name": "Austwick, North Yorkshire",
    "location_coord": { "lat": "54.109724", "lng": "-2.359008" }
  },
  {
    "id": "48",
    "name": "Mid Avonvale Road",
    "link_facebook": "https://chat.whatsapp.com/G4HgKrN9XHm6v91hRfyYrh",
    "location_name": "Avonvale Road (mid - BS5 9RY - and surrounding streets)",
    "location_coord": { "lat": "51.4549676", "lng": "-2.5599802" }
  },
  {
    "id": "49",
    "name": "Balham Covid-19 Mutual Aid Group",
    "link_facebook": "https://www.facebook.com/groups/225429451909864/",
    "location_name": "Balham, London",
    "location_coord": { "lat": "51.4439889", "lng": "-0.1494105" }
  },
  {
    "id": "50",
    "name": "Balham Covid-19 Mutual Aid Group",
    "link_facebook": "https://www.facebook.com/groups/872651583186527/?ref=share",
    "location_name": "Balham, London",
    "location_coord": { "lat": "51.4439889", "lng": "-0.1494105" }
  },
  {
    "id": "51",
    "name": "Covid-19: Ballachulish Community Support",
    "link_facebook": "https://www.facebook.com/covid19balla/",
    "location_name": "Ballachulish",
    "location_coord": { "lat": "56.6739269", "lng": "-5.133719999999999" }
  },
  {
    "id": "52",
    "name": "BANBURY COVID-19 SUPPORT GROUP FOR THE VULNERABLE",
    "link_facebook": "https://www.facebook.com/groups/241630583662474",
    "location_name": "BANBURY",
    "location_coord": { "lat": "52.0629009", "lng": "-1.339775" }
  },
  {
    "id": "53",
    "name": "Bangor District Orange Lodge",
    "link_facebook": "https://www.facebook.com/bangordistrict18/",
    "location_name": "Bangor, NI",
    "location_coord": { "lat": "54.6541971", "lng": "-5.6730648" }
  },
  {
    "id": "54",
    "name": "Banham (Covid-19) Community Network",
    "link_facebook": "https://www.facebook.com/groups/1096087254069399/",
    "location_name": "Banham, Norfolk",
    "location_coord": { "lat": "52.451249", "lng": "1.0402849" }
  },
  {
    "id": "55",
    "name": "Banstead Supporting Each Other ",
    "link_facebook": "https://www.facebook.com/groups/142620953768272/?ref=share",
    "location_name": "Banstead ",
    "location_coord": { "lat": "51.3221909", "lng": "-0.205046" }
  },
  {
    "id": "56",
    "name": "Banstead Epsom downs and surrounding areas mutual aid ",
    "link_facebook": "https://www.facebook.com/groups/756800024851345/?ref=share",
    "location_name": "Banstead ",
    "location_coord": { "lat": "51.3221909", "lng": "-0.205046" }
  },
  {
    "id": "57",
    "name": "Natasha ",
    "link_facebook": "https://m.facebook.com/profile.php?id=100021078032476",
    "location_name": "Barkin",
    "location_coord": { "lat": "30.247454", "lng": "-97.77241599999999" }
  },
  {
    "id": "58",
    "name": "Barnard Castle official on fb",
    "link_facebook": "https://www.facebook.com/groups/2323819774355476/",
    "location_name": "Barnard castle ",
    "location_coord": { "lat": "54.545284", "lng": "-1.923741" }
  },
  {
    "id": "59",
    "name": "Barnard Castle official on fb",
    "link_facebook": "https://www.facebook.com/groups/2323819774355476/",
    "location_name": "Barnard castle ",
    "location_coord": { "lat": "54.545284", "lng": "-1.923741" }
  },
  {
    "id": "60",
    "name": "Barnard castle COVID-19 support",
    "link_facebook": "https://www.facebook.com/Barnard-Castle-Covid-19-support-101222684855207/",
    "location_name": "Barnard castle ",
    "location_coord": { "lat": "54.545284", "lng": "-1.923741" }
  },
  {
    "id": "61",
    "name": "Covid help in Barnes",
    "link_facebook": "https://www.facebook.com/groups/528630341177540/",
    "location_name": "Barnes",
    "location_coord": { "lat": "36.10574830000001", "lng": "-95.9179508" }
  },
  {
    "id": "62",
    "name": "Barnet COVID-19 Mutual Aid",
    "link_facebook": "https://www.facebook.com/groups/215636692879586/",
    "location_name": "Barnet, London",
    "location_coord": { "lat": "51.6049673", "lng": "-0.2076295" }
  },
  {
    "id": "63",
    "name": "Barnham",
    "link_facebook": "https://www.facebook.com/BarnhamCovid19MutualAidGroup",
    "location_name": "Barnham",
    "location_coord": { "lat": "50.827758", "lng": "-0.635749" }
  },
  {
    "id": "64",
    "name": "Barnstaple Coronavirus Support Network",
    "link_facebook": "https://www.facebook.com/groups/203134040907933/",
    "location_name": "Barnstaple, North Devon",
    "location_coord": { "lat": "51.0781599", "lng": "-4.058338" }
  },
  {
    "id": "65",
    "name": "Barry Waterfront covid19 Community Support ",
    "link_facebook": "https://m.facebook.com/groups/2476088765987098?view=info&ref=m_notif&notif_t=feedback_reaction_generic",
    "location_name": "Barry Waterfront development, Barry South Wales ",
    "location_coord": { "lat": "51.3930556", "lng": "-3.2688889" }
  },
  {
    "id": "66",
    "name": "Barry Community COVID-19 news and assistance",
    "link_facebook": "https://www.facebook.com/groups/BarryCommunityCOVID19/",
    "location_name": "Barry, Wales",
    "location_coord": { "lat": "51.3997529", "lng": "-3.2825859" }
  },
  {
    "id": "67",
    "name": "Basingstoke Covid-19 Community Support Group",
    "link_facebook": "https://www.facebook.com/groups/192925425468492/about/",
    "location_name": "Basingstoke",
    "location_coord": { "lat": "51.26654", "lng": "-1.0923964" }
  },
  {
    "id": "68",
    "name": "Bassingbourn helpers ",
    "link_facebook": "https://www.facebook.com/groups/2217943181835985/?ref=share",
    "location_name": "Bassingbourn ",
    "location_coord": { "lat": "52.0798126", "lng": "-0.0538964" }
  },
  {
    "id": "69",
    "name": "Bath Mutual Aid",
    "link_facebook": "https://www.facebook.com/groups/968048970235948/",
    "location_name": "Bath",
    "location_coord": { "lat": "36.7156288", "lng": "-95.9314486" }
  },
  {
    "id": "70",
    "name": "Bath Mutual Aid",
    "link_facebook": "https://m.facebook.com/groups/151925132663139/",
    "location_name": "Bath",
    "location_coord": { "lat": "36.7156288", "lng": "-95.9314486" }
  },
  {
    "id": "71",
    "name": "Bath Mutual Aid",
    "link_facebook": "https://m.facebook.com/groups/151925132663139/",
    "location_name": "Bath",
    "location_coord": { "lat": "36.7156288", "lng": "-95.9314486" }
  },
  {
    "id": "72",
    "name": "Batheaston Covid-19 support group",
    "link_facebook": "https://www.facebook.com/groups/210526580020033/",
    "location_name": "Batheaston, Bath, BA1 7PL",
    "location_coord": { "lat": "51.4057642", "lng": "-2.3112994" }
  },
  {
    "id": "73",
    "name": "Delmont Close, Batley. Covid-19 Mutual Aid",
    "link_facebook": "https://www.facebook.com/groups/201850744489389/?hc_ref=ART8FZGkE3gvI_PCvm2JWtJ7dFkBCwixmHFp1-DW_J-gykRA1hFDX1XFMD3cJLqpydU&fref=gs&dti=201850744489389&hc_location=group",
    "location_name": "Batley ",
    "location_coord": { "lat": "53.717028", "lng": "-1.635083" }
  },
  {
    "id": "74",
    "name": "Battersea Covid-19 Mutual Aid",
    "link_facebook": "https://www.facebook.com/groups/BatterseaMutualAid/",
    "location_name": "Battersea, London",
    "location_coord": { "lat": "51.47220069999999", "lng": "-0.165547" }
  },
  {
    "id": "75",
    "name": "Bayston Hill Community",
    "link_facebook": "http://www.facebook.com/baystonhillcommunity",
    "location_name": "Bayston Hill, Shropshire",
    "location_coord": { "lat": "52.675377", "lng": "-2.75935" }
  },
  {
    "id": "76",
    "name": "Bayswater Covid-19 Mutual Aid",
    "link_facebook": "https://nextdoor.co.uk/g/xc1eop1rm/?is=tophat",
    "location_name": "Bayswater and surrounds (London)",
    "location_coord": { "lat": "51.5135456", "lng": "-0.1865659" }
  },
  {
    "id": "77",
    "name": "Nab Wood Neighbours",
    "link_facebook": "https://www.facebook.com/groups/249129386250724/about/",
    "location_name": "BD18 Nab Wood Shipley",
    "location_coord": { "lat": "53.8315273", "lng": "-1.8080573" }
  },
  {
    "id": "78",
    "name": "Beaconsfield Community Coronavirus Support",
    "link_facebook": "https://www.facebook.com/groups/664560170963159/?ref=share",
    "location_name": "Beaconsfield Bucks",
    "location_coord": { "lat": "51.602396", "lng": "-0.6442409" }
  },
  {
    "id": "79",
    "name": "Covid 19 Mutual aid Bearwood Sandwell (West Midlands) UK",
    "link_facebook": "https://www.facebook.com/groups/647032279173318/?fref=nf",
    "location_name": "Bearwood, Sandwell",
    "location_coord": { "lat": "52.47682500000001", "lng": "-1.9701819" }
  },
  {
    "id": "80",
    "name": "Cover-19 Mutual Aid Beckenham",
    "link_facebook": "https://www.facebook.com/groups/3849430858408209/",
    "location_name": "Beckenham",
    "location_coord": { "lat": "51.40817", "lng": "-0.025813" }
  },
  {
    "id": "81",
    "name": "Bedale Covid-19 Mutual Aid",
    "link_facebook": "https://www.facebook.com/groups/2386336568324181/",
    "location_name": "Bedale, North Yorkshire",
    "location_coord": { "lat": "54.2887008", "lng": "-1.5933179" }
  },
  {
    "id": "82",
    "name": "BI Covid19 Mutual Aid ",
    "link_facebook": "https://chat.whatsapp.com/Kh6j913KXjtCOxZYfD4jgO",
    "location_name": "Beddington Infants School Area, Wallington",
    "location_coord": { "lat": "51.3685202", "lng": "-0.1448195" }
  },
  {
    "id": "83",
    "name": "Bedlington Isolation Support Group",
    "link_facebook": "https://www.facebook.com/Bedlington-Station-Isolation-Support-Group-103159524649405/",
    "location_name": "Bedlington, Northumberland",
    "location_coord": { "lat": "55.131664", "lng": "-1.599454" }
  },
  {
    "id": "84",
    "name": "Bedlington Mutual Aid and Isolation Support group",
    "link_facebook": "https://www.facebook.com/groups/245976153107155/?ref=share",
    "location_name": "Bedlington, Northumberland ",
    "location_coord": { "lat": "55.131664", "lng": "-1.599454" }
  },
  {
    "id": "85",
    "name": "Beech Road Group ",
    "link_facebook": "https://chat.whatsapp.com/HC7yTbuZyJU8HEh9xvDRKw",
    "location_name": "Beech Road Stourbridge Uk",
    "location_coord": { "lat": "52.4451783", "lng": "-2.1548357" }
  },
  {
    "id": "86",
    "name": "Park St area ",
    "link_facebook": "https://www.facebook.com/groups/2259417441019584",
    "location_name": "Beeston - Nottingham",
    "location_coord": { "lat": "52.92392", "lng": "-1.212394" }
  },
  {
    "id": "87",
    "name": "LS11 Mutual Aid",
    "link_facebook": "https://www.facebook.com/groups/147091149885250",
    "location_name": "Beeston & Holbeck, Leeds",
    "location_coord": { "lat": "53.7732474", "lng": "-1.5653164" }
  },
  {
    "id": "88",
    "name": "Beeston Chilwell Area Mutual Aid Group",
    "link_facebook": "https://www.facebook.com/groups/262907364704981/",
    "location_name": "Beeston and Chilwell, Nottinghamshire",
    "location_coord": { "lat": "52.9187027", "lng": "-1.2332466" }
  },
  {
    "id": "89",
    "name": "Beeston Chilwell Area Mutual Aid Gtoup",
    "link_facebook": "https://www.facebook.com/groups/262907364704981/",
    "location_name": "Beeston, Nottinghamshire ",
    "location_coord": { "lat": "52.92392", "lng": "-1.212394" }
  },
  {
    "id": "90",
    "name": "Beighton mutual aid (COVID-19)",
    "link_facebook": "https://www.facebook.com/groups/2528687870687797/",
    "location_name": "Beighton, Sheffield",
    "location_coord": { "lat": "53.348806", "lng": "-1.337257" }
  },
  {
    "id": "91",
    "name": "Bellenden Big Lunch",
    "link_facebook": "https://www.facebook.com/groups/bellendenbiglunch/",
    "location_name": "Bellenden Road, SE15",
    "location_coord": { "lat": "51.468622", "lng": "-0.0725841" }
  },
  {
    "id": "92",
    "name": "James Green",
    "link_facebook": "https://m.facebook.com/?_rdr",
    "location_name": "Belper, Derbyshire",
    "location_coord": { "lat": "53.0243899", "lng": "-1.477616" }
  },
  {
    "id": "93",
    "name": "Belper Covid-19 Mutual Aid ",
    "link_facebook": "https://m.facebook.com/groups/494819231214162?_rdr",
    "location_name": "Belper, Derbyshire ",
    "location_coord": { "lat": "53.0243899", "lng": "-1.477616" }
  },
  {
    "id": "94",
    "name": "Benfleet Community Helpers",
    "link_facebook": "https://www.facebook.com/groups/2717864471667036/",
    "location_name": "Benfleet, Essex ",
    "location_coord": { "lat": "51.56616709999999", "lng": "0.5792811999999999" }
  },
  {
    "id": "95",
    "name": "BENSHAM COVID-19 Mutual Aid ",
    "link_facebook": "https://www.facebook.com/groups/212462686787925/",
    "location_name": "Bensham, Gateshead",
    "location_coord": { "lat": "54.95539369999999", "lng": "-1.6080002" }
  },
  {
    "id": "96",
    "name": "Bentham mutual aid",
    "link_facebook": "https://www.facebook.com/benthammutualaid",
    "location_name": "Bentham",
    "location_coord": { "lat": "41.8941957", "lng": "-87.6330581" }
  },
  {
    "id": "97",
    "name": "Benwell & Scotswood Covid 19 Mutual Aid",
    "link_facebook": "https://www.facebook.com/groups/635870360536339/",
    "location_name": "Benwell and Scotswood, Newcastle ",
    "location_coord": { "lat": "54.965934", "lng": "-1.6668828" }
  },
  {
    "id": "98",
    "name": "Berkeley and Surrounding Area Covid 19 Community Support",
    "link_facebook": "https://www.facebook.com/groups/2602255703234223/",
    "location_name": "Berkeley, Gloucestershire",
    "location_coord": { "lat": "51.6959856", "lng": "-2.4583956" }
  },
  {
    "id": "99",
    "name": "Berkhamsted Covid 19 Mutual Aid",
    "link_facebook": "https://m.facebook.com/groups/140520593982262?tsid=0.7858160217991305&source=result",
    "location_name": "Berkhamsted ",
    "location_coord": { "lat": "51.75976600000001", "lng": "-0.5678569000000001" }
  },
  {
    "id": "100",
    "name": "Berkhamsted Covid 19 Mutual Aid",
    "link_facebook": "https://m.facebook.com/groups/140520593982262?tsid=0.7858160217991305&source=result",
    "location_name": "Berkhamsted ",
    "location_coord": { "lat": "51.75976600000001", "lng": "-0.5678569000000001" }
  },
  {
    "id": "101",
    "name": "Isolation Berwick upon Tweed",
    "link_facebook": "https://www.facebook.com/Isolation-Berwick-upon-Tweed-100303458279149/",
    "location_name": "Berwick upon Tweed, Northumberland",
    "location_coord": { "lat": "55.770242", "lng": "-2.005395" }
  },
  {
    "id": "102",
    "name": "Beverley/East Riding COVID-19 Mutual Aid",
    "link_facebook": "https://www.facebook.com/groups/2492343557707128/?ref=share",
    "location_name": "Beverley, East Riding of Yorkshire",
    "location_coord": { "lat": "53.841963", "lng": "-0.435093" }
  },
  {
    "id": "103",
    "name": "Bewdley COVID 19 (Coronavirus) support group",
    "link_facebook": "https://www.facebook.com/groups/637082610170508/",
    "location_name": "Bewdley",
    "location_coord": { "lat": "52.375539", "lng": "-2.316973" }
  },
  {
    "id": "104",
    "name": "BEAT (Bexhill Emergency Action Team)",
    "link_facebook": "https://www.facebook.com/groups/199886864601614/",
    "location_name": "Bexhill On Sea",
    "location_coord": { "lat": "50.8499062", "lng": "0.4662071" }
  },
  {
    "id": "105",
    "name": "COVID-19 Mutual Aid Bickley ",
    "link_facebook": "https://www.facebook.com/groups/605255700030133/?ref=share",
    "location_name": "Bickley",
    "location_coord": { "lat": "51.38994700000001", "lng": "0.0492904" }
  },
  {
    "id": "106",
    "name": "Bicknoller Parish Comunity Response Team ",
    "link_facebook": "https://facebook.com/groups/Bickpost/",
    "location_name": "Bicknollor,  Nr Taunton, Somerset ",
    "location_coord": { "lat": "51.148642", "lng": "-3.26986" }
  },
  {
    "id": "107",
    "name": "Biggin Hill - Self-isolating / Covid-19 Mutual Aid",
    "link_facebook": "https://www.facebook.com/groups/249713209357722/?ref=group_header",
    "location_name": "Biggin Hill",
    "location_coord": { "lat": "51.312059", "lng": "0.032802" }
  },
  {
    "id": "108",
    "name": "Binfield Heath Covid-19 Mutual Aid",
    "link_facebook": "https://www.facebook.com/groups/236764107369482/?fref=gs&dti=1127034970705664&hc_location=group",
    "location_name": "Binfield Heath, Oxfordshire",
    "location_coord": { "lat": "51.5009104", "lng": "-0.9251064" }
  },
  {
    "id": "109",
    "name": "Bingham Helping Hands ",
    "link_facebook": "https://www.facebook.com/groups/2428762720557834/",
    "location_name": "Bingham, Notts NG13",
    "location_coord": { "lat": "52.951088", "lng": "-0.9561440000000001" }
  },
  {
    "id": "110",
    "name": "Birmingham Community Solidarity: Coronavirus Response",
    "link_facebook": "https://www.facebook.com/groups/3234138479933658/",
    "location_name": "Birmingham",
    "location_coord": { "lat": "33.5185892", "lng": "-86.8103567" }
  },
  {
    "id": "111",
    "name": "Cooperation Birmingham COVID- 19 Mutual Aid",
    "link_facebook": "https://cooperationbirmingham.org.uk/",
    "location_name": "Birmingham",
    "location_coord": { "lat": "33.5185892", "lng": "-86.8103567" }
  },
  {
    "id": "112",
    "name": "Birmingham Mutual Aid and Covid-19 Community Response Group",
    "link_facebook": "https://m.facebook.com/groups/3234138479933658/?ref=share",
    "location_name": "Birmingham ",
    "location_coord": { "lat": "33.5185892", "lng": "-86.8103567" }
  },
  {
    "id": "113",
    "name": "Muslim Association of Britain Youth",
    "link_facebook": "https://m.facebook.com/MABYouth/?tsid=0.5529324326946247&source=result",
    "location_name": "Birmingham, Liverpool, Manchester, Cardiff, Glasgow, London, Sheffield",
    "location_coord": { "lat": "52.48624299999999", "lng": "-1.890401" }
  },
  {
    "id": "114",
    "name": "Muslim Association of Britain Youth",
    "link_facebook": "https://m.facebook.com/MABYouth/?tsid=0.5529324326946247&source=result",
    "location_name": "Birmingham, Liverpool, Manchester, Cardiff, Glasgow, London, Sheffield",
    "location_coord": { "lat": "52.48624299999999", "lng": "-1.890401" }
  },
  {
    "id": "115",
    "name": "Ayuda Mutua en Birmingham (Coronavirus / COVID-19)",
    "link_facebook": "https://www.facebook.com/groups/2960503354010737/",
    "location_name": "Birmingham, West Midlands",
    "location_coord": { "lat": "52.48624299999999", "lng": "-1.890401" }
  },
  {
    "id": "116",
    "name": "COVID-19 Mutual Aid - Bishops Stortford",
    "link_facebook": "https://www.facebook.com/groups/196866378305274/?ref=share",
    "location_name": "Bishops Stortford ",
    "location_coord": { "lat": "51.8721635", "lng": "0.1536502" }
  },
  {
    "id": "117",
    "name": "Bishops Waltham Solidarity",
    "link_facebook": "https://www.facebook.com/groups/822404821547419/",
    "location_name": "Bishops Waltham, Hampshire",
    "location_coord": { "lat": "50.9546872", "lng": "-1.2179669" }
  },
  {
    "id": "118",
    "name": "Bishopthorpe Coronavirus Community Response Team",
    "link_facebook": "https://www.facebook.com/groups/259440878381854/",
    "location_name": "Bishopthorpe, York",
    "location_coord": { "lat": "53.9210967", "lng": "-1.1002664" }
  },
  {
    "id": "119",
    "name": "Blackburn Life - Bringing us all Together COVID-19",
    "link_facebook": "https://www.facebook.com/groups/BringingUsAllTogetherBwD",
    "location_name": "Blackburn and Darwen, Lancashire",
    "location_coord": { "lat": "53.695451", "lng": "-2.46874" }
  },
  {
    "id": "120",
    "name": "Blackheath COVID-19 Mutusl Aid Group",
    "link_facebook": "https://www.facebook.com/groups/813131692514068/",
    "location_name": "Blackheath, London",
    "location_coord": { "lat": "51.4658393", "lng": "0.0090338" }
  },
  {
    "id": "121",
    "name": "Blackley v COVID",
    "link_facebook": "https://www.facebook.com/BLACKLEYvCOVID/",
    "location_name": "Blackley, Manchester",
    "location_coord": { "lat": "53.5317109", "lng": "-2.2088876" }
  },
  {
    "id": "122",
    "name": "mr mutleys",
    "link_facebook": "http://m.me/mrmutleycafe",
    "location_name": "blackpool",
    "location_coord": { "lat": "53.8175053", "lng": "-3.0356748" }
  },
  {
    "id": "123",
    "name": "Mr mutleys cafe",
    "link_facebook": "http://facebook.com/mrmutleycafe",
    "location_name": "Blackpool",
    "location_coord": { "lat": "53.8175053", "lng": "-3.0356748" }
  },
  {
    "id": "124",
    "name": "Mutual Aid Oakdale & Blackwood",
    "link_facebook": "https://www.facebook.com/groups/783307942178825/",
    "location_name": "Blackwood",
    "location_coord": { "lat": "39.8023363", "lng": "-75.0640602" }
  },
  {
    "id": "125",
    "name": "Blockley Covid-19 response Group",
    "link_facebook": "https://www.facebook.com/groups/828216074324760/",
    "location_name": "Blockley, Gloucestershire",
    "location_coord": { "lat": "52.014696", "lng": "-1.763129" }
  },
  {
    "id": "126",
    "name": "Blunham Community C-19 Response Group",
    "link_facebook": "https://www.facebook.com/groups/2501484073399666",
    "location_name": "Blunham, Bedfordshire",
    "location_coord": { "lat": "52.14677589999999", "lng": "-0.3172629" }
  },
  {
    "id": "127",
    "name": "Blunham Community C-19 Response Group",
    "link_facebook": "https://www.facebook.com/groups/2501484073399666/",
    "location_name": "Blunham, Bedfordshire",
    "location_coord": { "lat": "52.14677589999999", "lng": "-0.3172629" }
  },
  {
    "id": "128",
    "name": "Blyth Covid-19 Mutual Aid",
    "link_facebook": "https://www.facebook.com/groups/142400240458179",
    "location_name": "Blyth, Northumberland",
    "location_coord": { "lat": "55.126957", "lng": "-1.510277" }
  },
  {
    "id": "129",
    "name": "Bodmin Covid-19 Mutual Aid",
    "link_facebook": "https://www.facebook.com/groups/698530357584048/?multi_permalinks=698531494250601&notif_id=1584213712798900&notif_t=feedback_reaction_generic",
    "location_name": "Bodmin Cornwall",
    "location_coord": { "lat": "50.4714961", "lng": "-4.7188629" }
  },
  {
    "id": "130",
    "name": "Bolton Mutual Aid",
    "link_facebook": "https://lm.facebook.com/l.php?u=https%3A%2F%2Ffb.me%2Falanarchy01&h=AT3YSi54HayRXQt8QhEIg-Za11u8ABjV3g8RVSrZMpwUfgMqVQdQRGBP4ZrjF_4eGc_FnhW95ShhDsFKOFYvQ2x7cia-9B4J0R_v1mNnZoMXX4Hk5ceM1-Kb6Fjd6dxFCLYuUpQkgPQll6j3Srw6",
    "location_name": "Bolton",
    "location_coord": { "lat": "53.57686469999999", "lng": "-2.4282192" }
  },
  {
    "id": "131",
    "name": "Helping In Farnworth",
    "link_facebook": "https://m.facebook.com/groups/208840987133615/members/?notif_t=group_milestone&notif_id=1584451121477220&ref=m_notif",
    "location_name": "Bolton ",
    "location_coord": { "lat": "53.57686469999999", "lng": "-2.4282192" }
  },
  {
    "id": "132",
    "name": "Bonchurch Road Mutual Aid and Support",
    "link_facebook": "https://www.facebook.com/groups/bonchurchroad/",
    "location_name": "Bonchurch Road, Brighton",
    "location_coord": { "lat": "50.83310609999999", "lng": "-0.1225026" }
  },
  {
    "id": "133",
    "name": "Bootle/Sefton COVID-19 Support Group",
    "link_facebook": "https://www.facebook.com/groups/2870118773082292/",
    "location_name": "Bootle",
    "location_coord": { "lat": "53.44325500000001", "lng": "-2.998895" }
  },
  {
    "id": "134",
    "name": "Volunteer Task Force Kensington & Chelsea",
    "link_facebook": "https://www.facebook.com/groups/545437412762011/",
    "location_name": "Borough of Kensington and Chelsea, London",
    "location_coord": { "lat": "51.4990805", "lng": "-0.1938253" }
  },
  {
    "id": "135",
    "name": "Coronavirus Community Support Bournemouth and Poole",
    "link_facebook": "https://www.facebook.com/groups/620344768788461/",
    "location_name": "Bournemouth and Poole",
    "location_coord": { "lat": "50.7380046", "lng": "-1.9883161" }
  },
  {
    "id": "136",
    "name": "Covid-19 Mutual Aid Bow (E3)",
    "link_facebook": "https://www.facebook.com/groups/643367883166920",
    "location_name": "Bow - E3",
    "location_coord": { "lat": "51.5320893", "lng": "-0.0308201" }
  },
  {
    "id": "137",
    "name": "FCARA - Bow London E3",
    "link_facebook": "https://www.fcara.org.uk/",
    "location_name": "Bow London E3",
    "location_coord": { "lat": "51.5281483", "lng": "-0.0205416" }
  },
  {
    "id": "138",
    "name": "Covid-19 Mutual Aid - BRACKNELL",
    "link_facebook": "https://www.facebook.com/groups/831209520725502/",
    "location_name": "Bracknell",
    "location_coord": { "lat": "51.41604", "lng": "-0.75398" }
  },
  {
    "id": "139",
    "name": "Together in Bracknell",
    "link_facebook": "https://m.facebook.com/groups/624602021434945?tsid=0.6864606864086348&source=result",
    "location_name": "Bracknell, Berkshire",
    "location_coord": { "lat": "51.41604", "lng": "-0.75398" }
  },
  {
    "id": "140",
    "name": "Covid 19 Mutual Aid Bradford BD3",
    "link_facebook": "https://www.facebook.com/groups/2795603000558589/",
    "location_name": "Bradford BD3",
    "location_coord": { "lat": "53.7977807", "lng": "-1.7255633" }
  },
  {
    "id": "141",
    "name": "Covid 19 Mutual Aid BD6",
    "link_facebook": "https://www.facebook.com/groups/2938569509497724/?ref=share",
    "location_name": "Bradford BD6",
    "location_coord": { "lat": "53.7615209", "lng": "-1.7923213" }
  },
  {
    "id": "142",
    "name": "Covid-19 Mutual Aid Bradford",
    "link_facebook": "https://www.facebook.com/groups/bfdcovid19/",
    "location_name": "Bradford, UK",
    "location_coord": { "lat": "53.795984", "lng": "-1.759398" }
  },
  {
    "id": "143",
    "name": "Braintree Pay it Forward",
    "link_facebook": "http://www.facebook.com/groups/braintreepayitforward",
    "location_name": "Braintree, Essex",
    "location_coord": { "lat": "51.880087", "lng": "0.5509269" }
  },
  {
    "id": "144",
    "name": "Bramhall North Residents Outreach",
    "link_facebook": "https://www.facebook.com/groups/867337517071347/",
    "location_name": "Bramhall North area around Midland Road / Northpark Road",
    "location_coord": { "lat": "53.3830445", "lng": "-2.1609797" }
  },
  {
    "id": "145",
    "name": "Helping hands ",
    "link_facebook": "https://www.facebook.com/groups/223303435456666/?ref=share",
    "location_name": "Bramhall Stockport ",
    "location_coord": { "lat": "53.367647", "lng": "-2.164072" }
  },
  {
    "id": "146",
    "name": "Bramhall community support group ",
    "link_facebook": "https://m.facebook.com/groups/142974320345745?multi_permalinks=142974980345679&notif_t=feedback_reaction_generic&notif_id=1584177861884876&ref=m_notif",
    "location_name": "Bramhall, Stockport ",
    "location_coord": { "lat": "53.367647", "lng": "-2.164072" }
  },
  {
    "id": "147",
    "name": "Brandsby Village Community",
    "link_facebook": "https://www.facebook.com/groups/2730620027224394/?ref=share",
    "location_name": "Brandsby, North Yorkshire",
    "location_coord": { "lat": "54.144743", "lng": "-1.098715" }
  },
  {
    "id": "148",
    "name": "Brechin/Edzell Corona Helpers & Requests.",
    "link_facebook": "https://www.facebook.com/groups/243669436671253/",
    "location_name": "Brechin. Angus",
    "location_coord": { "lat": "56.73334200000001", "lng": "-2.6552889" }
  },
  {
    "id": "149",
    "name": "Coronavirus Brecon and surrounding areas support group  ",
    "link_facebook": "https://www.facebook.com/groups/546009316119695/?ref=share",
    "location_name": "Brecon",
    "location_coord": { "lat": "51.9489469", "lng": "-3.391463" }
  },
  {
    "id": "150",
    "name": "Christ warriors",
    "link_facebook": "https://m.facebook.com/?_rdr",
    "location_name": "Brent",
    "location_coord": { "lat": "32.9373463", "lng": "-87.1647184" }
  },
  {
    "id": "151",
    "name": "Brent Covid 19 Mutual Aid",
    "link_facebook": "https://www.facebook.com/groups/202723577488723/",
    "location_name": "Brent, London",
    "location_coord": { "lat": "51.5672808", "lng": "-0.2710568" }
  },
  {
    "id": "152",
    "name": "Brent Covid-19 Mutual Aid Group",
    "link_facebook": "https://www.facebook.com/groups/202723577488723/",
    "location_name": "Brent, London",
    "location_coord": { "lat": "51.5672808", "lng": "-0.2710568" }
  },
  {
    "id": "153",
    "name": "Brentwood Community Help Hubs",
    "link_facebook": "https://www.facebook.com/groups/905265723225444/",
    "location_name": "Brentwood",
    "location_coord": { "lat": "38.6175522", "lng": "-90.34928289999999" }
  },
  {
    "id": "154",
    "name": "Please delete \"Brentwood COVID-19 Mutual Aid\" ",
    "link_facebook": "https://www.facebook.com/groups/874215369669553/",
    "location_name": "Brentwood & Ongar",
    "location_coord": { "lat": "51.68", "lng": "0.23" }
  },
  {
    "id": "155",
    "name": "Brentwood COVID-19 Mutual Aid",
    "link_facebook": "https://www.facebook.com/groups/874215369669553/",
    "location_name": "Brentwood & Ongar, Essex",
    "location_coord": { "lat": "51.68", "lng": "0.23" }
  },
  {
    "id": "156",
    "name": "Bretforton Community Covid-19 Mutual Aid",
    "link_facebook": "https://www.facebook.com/groups/233097511420438/",
    "location_name": "Bretforton, Worcestershire",
    "location_coord": { "lat": "52.093246", "lng": "-1.863793" }
  },
  {
    "id": "157",
    "name": "Bridgnorth Covid-19 Mutual Aid",
    "link_facebook": "https://www.facebook.com/groups/640018719903748/",
    "location_name": "Bridgnorth, Shropshire",
    "location_coord": { "lat": "52.53445499999999", "lng": "-2.424549" }
  },
  {
    "id": "158",
    "name": "Coronavirus Community Help Bridgewater",
    "link_facebook": "https://www.facebook.com/groups/2877449092348815/?ref=bookmarks",
    "location_name": "Bridgwater, Somerset",
    "location_coord": { "lat": "51.127889", "lng": "-3.003632" }
  },
  {
    "id": "159",
    "name": "Brighton Covid 19 Mutual Aid",
    "link_facebook": "https://www.facebook.com/groups/491658741529273/",
    "location_name": "Brighton",
    "location_coord": { "lat": "40.598019", "lng": "-111.583187" }
  },
  {
    "id": "160",
    "name": "The lanes and kemptown covid19 support",
    "link_facebook": "https://www.facebook.com/groups/493934357951315/",
    "location_name": "Brighton",
    "location_coord": { "lat": "40.598019", "lng": "-111.583187" }
  },
  {
    "id": "161",
    "name": "Bernard Road ",
    "link_facebook": "https://chat.whatsapp.com/GBYeGxFWTiZ3GyudxRB9oA",
    "location_name": "Brighton",
    "location_coord": { "lat": "40.598019", "lng": "-111.583187" }
  },
  {
    "id": "162",
    "name": "WeCare Brighton",
    "link_facebook": "https://www.wecarebrighton.org",
    "location_name": "Brighton & Hove",
    "location_coord": { "lat": "50.8226288", "lng": "-0.137047" }
  },
  {
    "id": "163",
    "name": "Pankhurst Av Covid-19 Mutual Aid and Support Group",
    "link_facebook": "https://www.facebook.com/groups/576723156520937/",
    "location_name": "Brighton and Hove",
    "location_coord": { "lat": "50.8226288", "lng": "-0.137047" }
  },
  {
    "id": "164",
    "name": "Covid-19 Brighton Hanover help group ",
    "link_facebook": "https://www.facebook.com/groups/203562647623740/?ref=share",
    "location_name": "Brighton Hanover",
    "location_coord": { "lat": "50.8275578", "lng": "-0.1276157" }
  },
  {
    "id": "165",
    "name": "Bristol Community Care - Covid-19 Mutual Aid",
    "link_facebook": "https://www.facebook.com/groups/1032597030460220/",
    "location_name": "Bristol",
    "location_coord": { "lat": "36.515694", "lng": "-82.25696669999999" }
  },
  {
    "id": "166",
    "name": "Bristol Community Care (via Bristol Mutual Aid)",
    "link_facebook": "https://www.facebook.com/groups/1032597030460220/",
    "location_name": "Bristol",
    "location_coord": { "lat": "36.515694", "lng": "-82.25696669999999" }
  },
  {
    "id": "167",
    "name": "COVID-19 Help, Support And Volunteering South Glos and Bristol",
    "link_facebook": "https://www.facebook.com/groups/COVID19SGlos/",
    "location_name": "Bristol",
    "location_coord": { "lat": "36.515694", "lng": "-82.25696669999999" }
  },
  {
    "id": "168",
    "name": "Covid-19 Mutual Aid - Group Admins",
    "link_facebook": "https://www.facebook.com/groups/151925132663139/?notif_id=1584462410119570&notif_t=group_r2j_approved&ref=notif",
    "location_name": "Bristol",
    "location_coord": { "lat": "36.515694", "lng": "-82.25696669999999" }
  },
  {
    "id": "169",
    "name": "COVID19/Coronavirus BS1 mutual help group",
    "link_facebook": "https://www.facebook.com/groups/223634625694691/",
    "location_name": "Bristol BS1",
    "location_coord": { "lat": "51.4522585", "lng": "-2.5924622" }
  },
  {
    "id": "170",
    "name": "COVID19/Coronavirus BS10 mutual help group",
    "link_facebook": "https://www.facebook.com/groups/2586699761568664/",
    "location_name": "Bristol BS10",
    "location_coord": { "lat": "51.5223374", "lng": "-2.6329947" }
  },
  {
    "id": "171",
    "name": "COVID-19/Coronavirus Bs11 mutual-help group",
    "link_facebook": "https://www.facebook.com/groups/571070506832488/",
    "location_name": "Bristol BS11",
    "location_coord": { "lat": "51.5107228", "lng": "-2.68139" }
  },
  {
    "id": "172",
    "name": "BS13 COVID-19 response (Bishopsworth, Hartcliffe & Withywood)",
    "link_facebook": "https://www.facebook.com/groups/835058770347193/",
    "location_name": "Bristol BS13",
    "location_coord": { "lat": "51.4177038", "lng": "-2.6108147" }
  },
  {
    "id": "173",
    "name": "Bs14 community support",
    "link_facebook": "https://www.facebook.com/groups/562228837736325/",
    "location_name": "Bristol BS14",
    "location_coord": { "lat": "51.408304", "lng": "-2.5606851" }
  },
  {
    "id": "174",
    "name": "Covid19/ Coronavirus Bristol BS2 Mutual Aid Group",
    "link_facebook": "https://www.facebook.com/groups/505609283459854/",
    "location_name": "Bristol BS2",
    "location_coord": { "lat": "51.4475549", "lng": "-2.5673698" }
  },
  {
    "id": "175",
    "name": "BS3 Community Covid-19 Response",
    "link_facebook": "https://www.facebook.com/groups/523617738532309/",
    "location_name": "Bristol BS3",
    "location_coord": { "lat": "51.4389455", "lng": "-2.6004718" }
  },
  {
    "id": "176",
    "name": "BS4 Community Mutual Aid Corvid-19 Response",
    "link_facebook": "https://www.facebook.com/groups/297601004550412/",
    "location_name": "Bristol BS4",
    "location_coord": { "lat": "51.4400242", "lng": "-2.5512776" }
  },
  {
    "id": "177",
    "name": "BS5 Community Care",
    "link_facebook": "https://www.facebook.com/groups/506054493680258/",
    "location_name": "Bristol BS5",
    "location_coord": { "lat": "51.4610013", "lng": "-2.5531961" }
  },
  {
    "id": "178",
    "name": "BS6 Community Covid-19 response",
    "link_facebook": "https://www.facebook.com/groups/3633792870026661/",
    "location_name": "Bristol BS6",
    "location_coord": { "lat": "51.4678568", "lng": "-2.600082" }
  },
  {
    "id": "179",
    "name": "BS7 Covid-19 Help and Response",
    "link_facebook": "https://www.facebook.com/groups/220811902446205/",
    "location_name": "Bristol BS7",
    "location_coord": { "lat": "51.48144689999999", "lng": "-2.5797458" }
  },
  {
    "id": "180",
    "name": "BS8 Covid-19 Support group",
    "link_facebook": "https://www.facebook.com/groups/549575592341916/",
    "location_name": "Bristol BS8",
    "location_coord": { "lat": "51.4585405", "lng": "-2.6640248" }
  },
  {
    "id": "181",
    "name": "BS9 Covid-19 response (Stoke Bishop, Henleaze & Westbury-On-Trym)",
    "link_facebook": "https://www.facebook.com/groups/659101674883198/",
    "location_name": "Bristol BS9",
    "location_coord": { "lat": "51.4803544", "lng": "-2.6290347" }
  },
  {
    "id": "182",
    "name": "COVID-19 COMMUNITY CARE - BS16",
    "link_facebook": "https://www.facebook.com/groups/1479015522267235/",
    "location_name": "Bristol/ South Glos BS16",
    "location_coord": { "lat": "51.4938018", "lng": "-2.4945293" }
  },
  {
    "id": "183",
    "name": "Residents of Broad Oak Heathfield ",
    "link_facebook": "https://www.facebook.com/groups/1962926087184983/?ref=share",
    "location_name": "Broad Oak, Heathfield, East Sussex",
    "location_coord": { "lat": "50.977703", "lng": "0.286756" }
  },
  {
    "id": "184",
    "name": "Brockenhurst Covid Support",
    "link_facebook": "https://www.facebook.com/groups/649805229182852/?ref=share",
    "location_name": "Brockenhurst, New Forest",
    "location_coord": { "lat": "50.818863", "lng": "-1.575726" }
  },
  {
    "id": "185",
    "name": "Brockley COVID support ",
    "link_facebook": "https://chat.whatsapp.com/BRZksqTruF9LT9s7GbLTdT",
    "location_name": "Brockley, London SE4 ",
    "location_coord": { "lat": "51.46377160000001", "lng": "-0.0366031" }
  },
  {
    "id": "186",
    "name": "COVID-19 Mutual Aid Bromley",
    "link_facebook": "https://www.facebook.com/groups/508708420070522",
    "location_name": "Bromley",
    "location_coord": { "lat": "43.2135167", "lng": "-72.93488760000001" }
  },
  {
    "id": "187",
    "name": "Bromsgrove & Halesowen COVID-19 Mutual Aid",
    "link_facebook": "https://www.facebook.com/groups/139570734113200/?source=unknown",
    "location_name": "Bromsgrove/Halesowen",
    "location_coord": { "lat": "52.449845", "lng": "-2.050526" }
  },
  {
    "id": "188",
    "name": "Hammersmith",
    "link_facebook": "https://www.facebook.com/sofiacherry",
    "location_name": "Brook Green, Hammersmith",
    "location_coord": { "lat": "51.4955965", "lng": "-0.2188279" }
  },
  {
    "id": "189",
    "name": "North Mymms Coronavirus assistance",
    "link_facebook": "http://www.nmyouth.org.uk/help/",
    "location_name": "Brookmans Park, Welham Green",
    "location_coord": { "lat": "51.73473", "lng": "-0.216951" }
  },
  {
    "id": "190",
    "name": "Brooks Coronavirus Support",
    "link_facebook": "https://www.facebook.com/groups/brookscommunity/",
    "location_name": "Brooks, Berriew, Welshpool, Powys",
    "location_coord": { "lat": "52.584498", "lng": "-3.267579" }
  },
  {
    "id": "191",
    "name": "Broseley Covid",
    "link_facebook": "https://www.facebook.com/groups/503122363711933/",
    "location_name": "Broseley, Shropshire",
    "location_coord": { "lat": "52.611527", "lng": "-2.4834109" }
  },
  {
    "id": "192",
    "name": "Borough Of Broxbourne Covid-19",
    "link_facebook": "https://www.facebook.com/groups/2677460295709900/",
    "location_name": "Broxbourne",
    "location_coord": { "lat": "51.74347299999999", "lng": "-0.021151" }
  },
  {
    "id": "193",
    "name": "Bruton COVID-19 Community Support Network",
    "link_facebook": "https://www.facebook.com/groups/218720822826377/",
    "location_name": "Bruton, Somerset",
    "location_coord": { "lat": "51.113338", "lng": "-2.452895" }
  },
  {
    "id": "194",
    "name": "COVID19/Coronavirus BS10 mutual help group",
    "link_facebook": "https://www.facebook.com/groups/2586699761568664/?hc_location=group",
    "location_name": "BS10 Bristol",
    "location_coord": { "lat": "51.5223374", "lng": "-2.6329947" }
  },
  {
    "id": "195",
    "name": "BS3 Community Covid-19 Response ",
    "link_facebook": "https://www.facebook.com/groups/BS3Covid19/",
    "location_name": "BS3 postcode area, Bristol ",
    "location_coord": { "lat": "51.4389455", "lng": "-2.6004718" }
  },
  {
    "id": "196",
    "name": "BS56RQ",
    "link_facebook": "https://bit.ly/2QlYB7W",
    "location_name": "BS56RQ",
    "location_coord": { "lat": "51.4745469", "lng": "-2.5458614" }
  },
  {
    "id": "197",
    "name": "BS7 Bristol Coid Help and Response",
    "link_facebook": "https://www.facebook.com/groups/220811902446205/?fref=nf",
    "location_name": "BS7 Bristol",
    "location_coord": { "lat": "51.48144689999999", "lng": "-2.5797458" }
  },
  {
    "id": "198",
    "name": "BS8 covid-19 support group",
    "link_facebook": "https://www.facebook.com/groups/549575592341916/",
    "location_name": "BS8, Bristol",
    "location_coord": { "lat": "51.4585405", "lng": "-2.6640248" }
  },
  {
    "id": "199",
    "name": "Buckhurst Hill Coronavirus COVID-19 Mutual Aid",
    "link_facebook": "https://www.facebook.com/groups/ig9coronavirus",
    "location_name": "Buckhurst Hill, Essex",
    "location_coord": { "lat": "51.627572", "lng": "0.034513" }
  },
  {
    "id": "200",
    "name": "Bungay during covid-19",
    "link_facebook": "https://m.facebook.com/groups/837749533393498?multi_permalinks=837992960035822&notif_t=feedback_reaction_generic&notif_id=1584295105804994&ref=m_notif",
    "location_name": "Bungay ",
    "location_coord": { "lat": "52.455457", "lng": "1.443976" }
  },
  {
    "id": "201",
    "name": "Burbage, Leicestershire Covid-19 mutual aid",
    "link_facebook": "https://www.facebook.com/pg/BurbageCovid19support/about/",
    "location_name": "Burbage, Leicestershire",
    "location_coord": { "lat": "52.527666", "lng": "-1.348303" }
  },
  {
    "id": "202",
    "name": "Burgess Hill Helper Army",
    "link_facebook": "https://www.facebook.com/groups/666932804083179/?fref=nf",
    "location_name": "Burgess Hill ",
    "location_coord": { "lat": "50.954469", "lng": "-0.128701" }
  },
  {
    "id": "203",
    "name": "Haymill Coronavirus Support Group",
    "link_facebook": "https://www.facebook.com/groups/HaymillCV/",
    "location_name": "Burnham",
    "location_coord": { "lat": "32.9014195", "lng": "-117.2419828" }
  },
  {
    "id": "204",
    "name": "Coronavirus Mutual Aid Burnham-on-Crouch",
    "link_facebook": "https://www.facebook.com/groups/261166028208979/",
    "location_name": "Burnham-on-Crouch, Essex",
    "location_coord": { "lat": "51.628347", "lng": "0.814539" }
  },
  {
    "id": "205",
    "name": "Burnham Resilience  - Covid 19",
    "link_facebook": "https://www.facebook.com/groups/645502515993494/  ",
    "location_name": "Burnham, Buckinghamshire",
    "location_coord": { "lat": "51.539466", "lng": "-0.6560172" }
  },
  {
    "id": "206",
    "name": "Helping the vulnerable / elderly *Burnhope*",
    "link_facebook": "https://www.facebook.com/groups/573343063268228/?ref=share",
    "location_name": "Burnhope, Durham ",
    "location_coord": { "lat": "54.832358", "lng": "-1.698199" }
  },
  {
    "id": "207",
    "name": "Burton, Cheshire, CH64",
    "link_facebook": "https://m.facebook.com/groups/635116093711713?group_view_referrer=profile_browser",
    "location_name": "Burton, Neston, CH64",
    "location_coord": { "lat": "53.260179", "lng": "-3.025404" }
  },
  {
    "id": "208",
    "name": "BSE Covid-19 Support",
    "link_facebook": "https://www.facebook.com/groups/2607171782745927/?fref=mentions",
    "location_name": "Bury St Edmunds",
    "location_coord": { "lat": "52.2429228", "lng": "0.7104931999999999" }
  },
  {
    "id": "209",
    "name": "Bury St Edmunds Covid-19 Community Aid",
    "link_facebook": "https://www.facebook.com/groups/284466145873305/?ref=share",
    "location_name": "Bury st Edmunds ",
    "location_coord": { "lat": "52.2429228", "lng": "0.7104931999999999" }
  },
  {
    "id": "210",
    "name": "Bury Mutual Aid Group",
    "link_facebook": "https://www.facebook.com/groups/BuryMutualAidGroup/",
    "location_name": "Bury, Greater Manchester",
    "location_coord": { "lat": "53.5933498", "lng": "-2.2966054" }
  },
  {
    "id": "211",
    "name": "Covid-19 Mutual Aid Group Buxton",
    "link_facebook": "https://www.facebook.com/groups/767722633753206/",
    "location_name": "Buxton",
    "location_coord": { "lat": "45.6887233", "lng": "-123.1909455" }
  },
  {
    "id": "212",
    "name": "Caerphilly Coronavirus Support",
    "link_facebook": "https://www.facebook.com/groups/920287805036004/",
    "location_name": "Caerphilly",
    "location_coord": { "lat": "51.578829", "lng": "-3.218134" }
  },
  {
    "id": "213",
    "name": "Caistor Volunteers",
    "link_facebook": "https://m.facebook.com/groups/1696422883843620?multi_permalinks=1696427310509844&notif_t=feedback_reaction_generic&notif_id=1584370084886059&ref=m_notif",
    "location_name": "Caistor Lincolnshire ",
    "location_coord": { "lat": "53.497485", "lng": "-0.315393" }
  },
  {
    "id": "214",
    "name": "Far North Coronavirus Mutual Support Group",
    "link_facebook": "https://www.facebook.com/groups/1283433951849002/?multi_permalinks=1283450825180648%2C1283448821847515&notif_id=1584528494632706&notif_t=group_activity",
    "location_name": "Caithness, Sutherland, and Easter Ross",
    "location_coord": { "lat": "58.27699999999999", "lng": "-3.778999999999999" }
  },
  {
    "id": "215",
    "name": "Calderdale Covid19 Action Group",
    "link_facebook": "https://www.facebook.com/groups/635218107261429/",
    "location_name": "Calderdale, West Yorkshire",
    "location_coord": { "lat": "53.7247845", "lng": "-1.8658357" }
  },
  {
    "id": "216",
    "name": "Carmarthen & South Pembrokeshire ",
    "link_facebook": "https://www.facebook.com/groups/231551228021854/?ref=share",
    "location_name": "Camarthen, Tenby, Pembrokeshire ",
    "location_coord": { "lat": "51.85762", "lng": "-4.312131" }
  },
  {
    "id": "217",
    "name": "Covid-19 Support Group Surrey Heath",
    "link_facebook": "https://www.facebook.com/groups/1422362274613078/",
    "location_name": "Camberley Surrey",
    "location_coord": { "lat": "51.3353899", "lng": "-0.742856" }
  },
  {
    "id": "218",
    "name": "Camberley help/swap/exchange food and supplies",
    "link_facebook": "https://www.facebook.com/groups/195445235076204/",
    "location_name": "Camberley, Surrey",
    "location_coord": { "lat": "51.3353899", "lng": "-0.742856" }
  },
  {
    "id": "219",
    "name": "C-19 Coldharbour / New Road",
    "link_facebook": "https://chat.whatsapp.com/Bapy8tdNrYEGnPr7EebRSK",
    "location_name": "Camberwell, Coldharbour Lane",
    "location_coord": { "lat": "51.4684573", "lng": "-0.0984152" }
  },
  {
    "id": "220",
    "name": "London SE5",
    "link_facebook": "https://chat.whatsapp.com/JKnKOLtLA1HLfXS2wj1Lep",
    "location_name": "Camberwell/SE5 postcode",
    "location_coord": { "lat": "51.475561", "lng": "-0.0908654" }
  },
  {
    "id": "221",
    "name": "Cambourne VTF (COVID-19)",
    "link_facebook": "http://www.CambourneCrescent.org/vtf",
    "location_name": "Cambourne",
    "location_coord": { "lat": "52.21776389999999", "lng": "-0.0662097" }
  },
  {
    "id": "222",
    "name": "Cambourne VTF (COVID-19)",
    "link_facebook": "http://www.CambourneCrescent.org/vtf",
    "location_name": "Cambourne",
    "location_coord": { "lat": "52.21776389999999", "lng": "-0.0662097" }
  },
  {
    "id": "223",
    "name": "Cambourne Volunteer Task Force",
    "link_facebook": "http://www.cambournecrescent.org/vtf",
    "location_name": "Cambourne, Cambridgeshire m",
    "location_coord": { "lat": "52.2188263", "lng": "-0.0689475" }
  },
  {
    "id": "224",
    "name": "The Square",
    "link_facebook": "https://chat.whatsapp.com/GuGTxYbfQ3jBBiJUvbismE",
    "location_name": "Cambridge - Sherlock, Eachard, Woodlark, and Hoadly Roads and Sherlock Close",
    "location_coord": { "lat": "52.2222521", "lng": "0.1041085" }
  },
  {
    "id": "225",
    "name": "cambridgeshire coronavirus mutual aid",
    "link_facebook": "https://www.facebook.com/groups/196779265071327/",
    "location_name": "Cambridge/Fulbourn",
    "location_coord": { "lat": "52.18268", "lng": "0.222039" }
  },
  {
    "id": "226",
    "name": "Cambridgeshire Coronavirus Mutual Aid",
    "link_facebook": "https://www.facebook.com/groups/196779265071327/",
    "location_name": "Cambridgeshire",
    "location_coord": { "lat": "52.2052973", "lng": "0.1218195" }
  },
  {
    "id": "227",
    "name": "Cambourne VTF (COVID-19)",
    "link_facebook": "http://www.CambourneCrescent.org/vtf",
    "location_name": "Cambridgeshire",
    "location_coord": { "lat": "52.2052973", "lng": "0.1218195" }
  },
  {
    "id": "228",
    "name": "Camden COVID-19 Mutual Aid",
    "link_facebook": "https://www.facebook.com/groups/199172994722225/",
    "location_name": "Camden, London",
    "location_coord": { "lat": "51.5390261", "lng": "-0.1425516" }
  },
  {
    "id": "229",
    "name": "Chase Coronavirus Support Network",
    "link_facebook": "http://www.ccsn.org.uk/",
    "location_name": "Cannock Chase District",
    "location_coord": { "lat": "52.7183027", "lng": "-1.9858812" }
  },
  {
    "id": "230",
    "name": "Canons Park/Stanmore Covid-19 Support Group",
    "link_facebook": "https://www.facebook.com/groups/235208297557802/",
    "location_name": "Canons Park",
    "location_coord": { "lat": "51.6076736", "lng": "-0.2962361" }
  },
  {
    "id": "231",
    "name": "Canons Park/Stanmore Covid-19 Support group",
    "link_facebook": "https://www.facebook.com/groups/235208297557802/",
    "location_name": "Canons Park and Stanmore",
    "location_coord": { "lat": "51.6076736", "lng": "-0.2962361" }
  },
  {
    "id": "232",
    "name": "Canterbury Corona-Virus Assistance",
    "link_facebook": "https://www.facebook.com/groups/1492309854275597/",
    "location_name": "Canterbury ",
    "location_coord": { "lat": "51.280233", "lng": "1.0789089" }
  },
  {
    "id": "233",
    "name": "ParishHelp",
    "link_facebook": "http://www.capelparishcouncil.org.uk",
    "location_name": "Capel Parish Surrey",
    "location_coord": { "lat": "51.153747", "lng": "-0.32109" }
  },
  {
    "id": "234",
    "name": "Cardiff Covid-19 Mutual Aid",
    "link_facebook": "https://www.facebook.com/groups/798456330650652",
    "location_name": "Cardiff",
    "location_coord": { "lat": "51.48158100000001", "lng": "-3.17909" }
  },
  {
    "id": "235",
    "name": "Penylan / Cyncoed Covid-19 Mutual Aid Group",
    "link_facebook": "https://www.facebook.com/groups/685229805549686/",
    "location_name": "Cardiff",
    "location_coord": { "lat": "51.48158100000001", "lng": "-3.17909" }
  },
  {
    "id": "236",
    "name": "Cardiff Area Corona Support",
    "link_facebook": "https://www.facebook.com/groups/190344125596745/",
    "location_name": "Cardiff",
    "location_coord": { "lat": "51.48158100000001", "lng": "-3.17909" }
  },
  {
    "id": "237",
    "name": "Newfoundland Road Cardiff",
    "link_facebook": "https://www.facebook.com/groups/202098517691472/",
    "location_name": "Cardiff",
    "location_coord": { "lat": "51.48158100000001", "lng": "-3.17909" }
  },
  {
    "id": "238",
    "name": "Roath/ Cathays/ Gabalfa/ Heath COVID-19 Area Group",
    "link_facebook": "https://m.facebook.com/groups/251990475816496?multi_permalinks=252021992480011&notif_t=feedback_reaction_generic&notif_id=1584279519971619&ref=m_notif",
    "location_name": "Cardiff - Roath/ Cathays/ Gabalfa/ Heath",
    "location_coord": { "lat": "51.50182239999999", "lng": "-3.1951155" }
  },
  {
    "id": "239",
    "name": "Victoria Wharf Volunteers",
    "link_facebook": "https://www.facebook.com/groups/victoriawharfcardiff",
    "location_name": "Cardiff Marina",
    "location_coord": { "lat": "51.44786939999999", "lng": "-3.1846032" }
  },
  {
    "id": "240",
    "name": "Ely and Caerau Covid-19 Support",
    "link_facebook": "https://www.facebook.com/groups/1036654390037535",
    "location_name": "Cardiff West",
    "location_coord": { "lat": "51.486", "lng": "-3.214" }
  },
  {
    "id": "253",
    "name": "Coronavirus Help - Wallington & Carshalton",
    "link_facebook": "https://www.facebook.com/groups/294968874815498/",
    "location_name": "Carshalton and Wallington, Surrey",
    "location_coord": { "lat": "51.36", "lng": "-0.15" }
  },
  {
    "id": "254",
    "name": "Carshalton Covid-19 Mutual Aid",
    "link_facebook": "https://m.facebook.com/groups/630836831089809/?ref=group_browse",
    "location_name": "Carshalton, London Borough of Sutton",
    "location_coord": { "lat": "51.365018", "lng": "-0.164921" }
  },
  {
    "id": "678",
    "name": "Hounslow Covid-19 Mutual Aid Group",
    "link_facebook": "https://www.facebook.com/groups/770869870407640/",
    "location_name": "Hounslow, London",
    "location_coord": { "lat": "51.4828358", "lng": "-0.3882062" }
  },
  {
    "id": "692",
    "name": "Ilfracombe Support Group",
    "link_facebook": "https://www.facebook.com/official.Ilfracombe.town.council/",
    "location_name": "Ilfracombe, North Devon, EX34 9QB",
    "location_coord": { "lat": "51.207558", "lng": "-4.1253057" }
  },
  {
    "id": "717",
    "name": "Kendal Self Isolation Support",
    "link_facebook": "https://www.facebook.com/groups/kendalselfisolationsupport/",
    "location_name": "Kendal",
    "location_coord": { "lat": "54.32800599999999", "lng": "-2.74629" }
  },
  {
    "id": "719",
    "name": "helping Kenilworth’s elderly and vulnerable",
    "link_facebook": "https://www.facebook.com/groups/918643545308465",
    "location_name": "Kenilworth",
    "location_coord": { "lat": "40.6764911", "lng": "-74.2907032" }
  },
  {
    "id": "722",
    "name": "Cottington C19 Mutual Aid ",
    "link_facebook": "https://www.facebook.com/groups/502068207406199/",
    "location_name": "Kennington, London SE11",
    "location_coord": { "lat": "51.4879753", "lng": "-0.1119362" }
  },
  {
    "id": "760",
    "name": "Lancing and Sompting Coronavirus Community Support Page",
    "link_facebook": "https://www.facebook.com/groups/737793613417708/",
    "location_name": "Lancing and Sompting, West Sussex",
    "location_coord": { "lat": "50.829533", "lng": "-0.337416" }
  },
  {
    "id": "769",
    "name": "Leeds Covid-19 Mutual Aid",
    "link_facebook": "https://www.facebook.com/LeedsMutualAid/",
    "location_name": "Leeds",
    "location_coord": { "lat": "53.8007554", "lng": "-1.5490774" }
  },
  {
    "id": "812",
    "name": "Llandaff Covid-19 Assistance",
    "link_facebook": "https://www.facebook.com/groups/235091941000376/about/",
    "location_name": "Llandaff",
    "location_coord": { "lat": "51.4944589", "lng": "-3.2239582" }
  },
  {
    "id": "863",
    "name": "HUMANS MCR",
    "link_facebook": "https://www.facebook.com/humansmcr",
    "location_name": "Manchester",
    "location_coord": { "lat": "53.4807593", "lng": "-2.2426305" }
  },
  {
    "id": "869",
    "name": "RAPAR",
    "link_facebook": "http://www.rapar.co.uk/news/first-response-to-the-coronavirus-pandemic",
    "location_name": "Manchester City centre base",
    "location_coord": { "lat": "53.4807593", "lng": "-2.2426305" }
  },
  {
    "id": "890",
    "name": "Meadows, Nottingham Covid-19 Mutual Aid",
    "link_facebook": "https://www.facebook.com/groups/2468108173438652/",
    "location_name": "Meadows, Nottingham",
    "location_coord": { "lat": "52.9390203", "lng": "-1.1464807" }
  },
  {
    "id": "1259",
    "name": "Stapleford Community Group ",
    "link_facebook": "https://www.facebook.com/groups/StaplefordCommunityGroup/",
    "location_name": "Stapleford, Nottinghamshire ",
    "location_coord": { "lat": "52.9286389", "lng": "-1.272719" }
  },
  {
    "id": "1260",
    "name": "Stapleford Helping Hand and Surrounding Areas",
    "link_facebook": "https://www.facebook.com/groups/228208115239056/",
    "location_name": "Stapleford, Nottinghamshire ",
    "location_coord": { "lat": "52.9286389", "lng": "-1.272719" }
  },
  {
    "id": "1275",
    "name": "Covid-19 Mutual Aid Stone Staffordshire",
    "link_facebook": "https://www.facebook.com/groups/191699368789645/?ref=share",
    "location_name": "Stone, Staffordshire",
    "location_coord": { "lat": "52.907932", "lng": "-2.144045" }
  },
  {
    "id": "1303",
    "name": "Covid 19 Care Sutton and Cheam",
    "link_facebook": "https://www.facebook.com/groups/2844132892336002/",
    "location_name": "Sutton and Cheam",
    "location_coord": { "lat": "51.36199999999999", "lng": "-0.209" }
  },
  {
    "id": "1313",
    "name": "Swansea Covid 19 support group",
    "link_facebook": "https://www.facebook.com/groups/1110458535954111/",
    "location_name": "Swansea",
    "location_coord": { "lat": "51.62144", "lng": "-3.943645999999999" }
  },
  {
    "id": "1323",
    "name": "Tavistock quarantine assistance",
    "link_facebook": "http://www.tavistockquarantineassistance.co.uk",
    "location_name": "Tavistock Devon",
    "location_coord": { "lat": "50.5511229", "lng": "-4.141654" }
  },
  {
    "id": "1336",
    "name": "Thorncombe Coronavirus Support Group",
    "link_facebook": "https://www.facebook.com/groups/214128733113288/?ref=share",
    "location_name": "Thorncombe, Dorset",
    "location_coord": { "lat": "50.8252749", "lng": "-2.887931" }
  },
  {
    "id": "1357",
    "name": "Tottenham Hale ward Covid 19 mutual aid",
    "link_facebook": "https://chat.whatsapp.com/IbePX2NMPe7479g5fXlepr",
    "location_name": "Tottenham Hale, Haringey ",
    "location_coord": { "lat": "51.5892808", "lng": "-0.06105049999999999" }
  },
  {
    "id": "1387",
    "name": "Wakefield Coronovirus Support Group",
    "link_facebook": "https://www.facebook.com/groups/503549513859451/permalink/503561630524906/",
    "location_name": "Wakefield ",
    "location_coord": { "lat": "42.5039395", "lng": "-71.0723391" }
  },
  {
    "id": "1402",
    "name": "Help My Neighbour - Warwick and Leamington",
    "link_facebook": "https://www.facebook.com/groups/147166909879300/",
    "location_name": "Warwick and Leamington Spa, Warwickshire (CV31, 32 & 34)",
    "location_coord": { "lat": "52.2720596", "lng": "-1.4988188" }
  },
  {
    "id": "1504",
    "name": "Yateley Covid-19 (Help & Support)",
    "link_facebook": "https://www.facebook.com/groups/670463417025077/",
    "location_name": "Yateley, Hampshire",
    "location_coord": { "lat": "51.3426285", "lng": "-0.8262729" }
  },
  {
    "id": "1508",
    "name": "York Covid-19 Volunteers",
    "link_facebook": "https://www.facebook.com/groups/217818466291732/announcements/",
    "location_name": "York",
    "location_coord": { "lat": "39.9625984", "lng": "-76.727745" }
  },
  {
    "id": "1520",
    "name": "Butlers Marston Cares",
    "link_facebook": "https://www.facebook.com/Butlers-Marston-Cares-102328198074593/",
    "location_name": "Butlers Marston, warwickshire, CV35 ",
    "location_coord": { "lat": "52.1472989", "lng": "-1.5367829" }
  },
  {
    "id": "1521",
    "name": "GA/SG Community Help",
    "link_facebook": "https://chat.whatsapp.com/LbklEW6qqFT7ZSXVhWtdb7",
    "location_name": "Grosvenor Avenue, Sutherland Gardens and Upper Richmond Road SW14",
    "location_coord": { "lat": "51.466411", "lng": "-0.2557067" }
  },
  {
    "id": "1523",
    "name": "Hall Royd Mutual Aid",
    "link_facebook": "https://www.facebook.com/groups/HRARA/",
    "location_name": "Shipley",
    "location_coord": { "lat": "35.3571396", "lng": "-94.4270098" }
  },
  {
    "id": "1524",
    "name": "Morval & Widegates Covid19 Support Group",
    "link_facebook": "https://m.facebook.com/groups/492629994766011",
    "location_name": "Morval & Widegates, SE Cornwall",
    "location_coord": { "lat": "50.3963669", "lng": "-4.414087299999999" }
  },
  {
    "id": "1527",
    "name": "Looe Coronavirus support",
    "link_facebook": "https://m.facebook.com/groups/876026869514760",
    "location_name": "Looe, Cornwall",
    "location_coord": { "lat": "50.3562269", "lng": "-4.455232" }
  },
  {
    "id": "1546",
    "name": "Nailsea COVID-19 Help Group",
    "link_facebook": "https://www.facebook.com/groups/603817680200923/",
    "location_name": "Nailsea",
    "location_coord": { "lat": "51.43175600000001", "lng": "-2.756287" }
  },
  {
    "id": "1547",
    "name": "Sedgley Coronavirus Support",
    "link_facebook": "https://www.facebook.com/groups/1544098835746729/",
    "location_name": "Sedgley",
    "location_coord": { "lat": "39.2407302", "lng": "-76.8411232" }
  },
  {
    "id": "1560",
    "name": "Islingword Place Brighton - Neighbour Network",
    "link_facebook": "https://www.facebook.com/groups/518228419111885/",
    "location_name": "Brighton BN2",
    "location_coord": { "lat": "50.835201", "lng": "-0.0802082" }
  },
  {
    "id": "241",
    "name": "Cardif Covid-19 Mutual Aid Network",
    "link_facebook": "https://www.facebook.com/groups/505064553776232/",
    "location_name": "Cardiff, Wales",
    "location_coord": { "lat": "51.48158100000001", "lng": "-3.17909" }
  },
  {
    "id": "242",
    "name": "Cardiff Covid-19 Mutual Aid Network",
    "link_facebook": "https://www.facebook.com/groups/505064553776232/ ",
    "location_name": "Cardiff, Wales",
    "location_coord": { "lat": "51.48158100000001", "lng": "-3.17909" }
  },
  {
    "id": "243",
    "name": "Cardrona - Covid-19 Mutual Aid Group",
    "link_facebook": "https://www.facebook.com/groups/1154950678181386/?ref=share",
    "location_name": "Cardrona, Peebles, Scottish Borders",
    "location_coord": { "lat": "55.638801", "lng": "-3.1093728" }
  },
  {
    "id": "244",
    "name": "Supporting Carlby Community",
    "link_facebook": "https://www.facebook.com/Supporting-Carlby-Community-103926204574214/",
    "location_name": "Carlby, Lincolnshire",
    "location_coord": { "lat": "52.7132087", "lng": "-0.4468499" }
  },
  {
    "id": "245",
    "name": "East cleveland neighbourhood support",
    "link_facebook": "https://www.facebook.com/groups/592071378316663/",
    "location_name": "Carlin how",
    "location_coord": { "lat": "54.561395", "lng": "-0.9081389999999998" }
  },
  {
    "id": "246",
    "name": "Carlisle Covid-19 Mutual Aid",
    "link_facebook": "https://www.facebook.com/groups/1316512578550757/",
    "location_name": "Carlisle ",
    "location_coord": { "lat": "40.2010241", "lng": "-77.20027449999999" }
  },
  {
    "id": "247",
    "name": "Carlton Le Moorland COVID-19 Mutual Aid",
    "link_facebook": "https://www.facebook.com/groups/536904306826712/",
    "location_name": "Carlton Le Moorland, Lincoln, Lincolnshire",
    "location_coord": { "lat": "53.11033399999999", "lng": "-0.645207" }
  },
  {
    "id": "248",
    "name": "Lend a hand carluke/lanark",
    "link_facebook": "https://www.facebook.com/421197854614762/posts/2912324525502070/",
    "location_name": "Carluke/Lanark",
    "location_coord": { "lat": "55.673865", "lng": "-3.782138" }
  },
  {
    "id": "249",
    "name": "Grwp Cyd-Cymorth Sir Gar | Sir Gar Mutual Aid Group",
    "link_facebook": "https://www.facebook.com/groups/221955192513263/",
    "location_name": "Carmarthenshire",
    "location_coord": { "lat": "51.8572309", "lng": "-4.311595899999999" }
  },
  {
    "id": "250",
    "name": "Carmarthenshire covid-19 support group",
    "link_facebook": "https://m.facebook.com/groups/827580067719862/",
    "location_name": "Carmarthenshire ",
    "location_coord": { "lat": "51.8572309", "lng": "-4.311595899999999" }
  },
  {
    "id": "251",
    "name": "carnforth carnival ",
    "link_facebook": "https://www.facebook.com/carnforthcarnival/",
    "location_name": "carnforth and surrounding areas",
    "location_coord": { "lat": "54.1297639", "lng": "-2.771139" }
  },
  {
    "id": "252",
    "name": "Covid- 19 Help and support in Carnoustie ",
    "link_facebook": "https://www.facebook.com/groups/665237324227738/?ref=share",
    "location_name": "Carnoustie, Angus ",
    "location_coord": { "lat": "56.502565", "lng": "-2.70325" }
  },
  {
    "id": "255",
    "name": "Carterton & Brize Coronavirus community assistance group",
    "link_facebook": "https://www.facebook.com/groups/613436352552367/",
    "location_name": "Carterton and Brize Norton - Oxfordshire",
    "location_coord": { "lat": "51.767658", "lng": "-1.566767" }
  },
  {
    "id": "256",
    "name": "Carterton & Brize Coronavirus community support group",
    "link_facebook": "https://www.facebook.com/groups/613436352552367/",
    "location_name": "Carterton, Oxon",
    "location_coord": { "lat": "51.759712", "lng": "-1.593124" }
  },
  {
    "id": "257",
    "name": "Casino Covid-19 Support",
    "link_facebook": "https://chat.whatsapp.com/Bp8cVmOzf981QAKS0JQYD3",
    "location_name": "Casino Avenue, Southwark, SE24",
    "location_coord": { "lat": "51.4577965", "lng": "-0.0930796" }
  },
  {
    "id": "258",
    "name": "Cathall Ward Covid-19 Mutual Aid",
    "link_facebook": "https://chat.whatsapp.com/C4nTtTUjOBA2JOcvveMBSP",
    "location_name": "Cathall Ward Waltham Forest",
    "location_coord": { "lat": "51.5609115", "lng": "0.0043225" }
  },
  {
    "id": "259",
    "name": "Helping those in need during the COVID-19 catterick Garrison",
    "link_facebook": "https://www.facebook.com/groups/516524759047581/?ref=share",
    "location_name": "Catterick garrison and surrounding areas",
    "location_coord": { "lat": "54.3776861", "lng": "-1.7228174" }
  },
  {
    "id": "260",
    "name": "Covid-10 Mutual Aid Caversham & Caversham Heights",
    "link_facebook": "https://www.facebook.com/groups/Covid19SupportCaversham/",
    "location_name": "Caversham & Caversham Heights, Reading (RG4 area)",
    "location_coord": { "lat": "51.4724352", "lng": "-0.9880333000000001" }
  },
  {
    "id": "261",
    "name": "Caversham Mutual Aid Covid Support",
    "link_facebook": "https://www.facebook.com/groups/196803968271709/?fref=nf",
    "location_name": "Caversham, Reading",
    "location_coord": { "lat": "51.476798", "lng": "-0.966547" }
  },
  {
    "id": "262",
    "name": "Lambert Grove Kennett",
    "link_facebook": "https://www.facebook.com/groups/3342519839096752/",
    "location_name": "CB8 7RF",
    "location_coord": { "lat": "52.2700749", "lng": "0.4884636" }
  },
  {
    "id": "263",
    "name": "Lambeth Covid-19 Mutual Aid Group",
    "link_facebook": "https://www.facebook.com/groups/214918153220011/",
    "location_name": "Central Brixton",
    "location_coord": { "lat": "51.4612794", "lng": "-0.1156148" }
  },
  {
    "id": "264",
    "name": "Central London Covid-19 Mutual Aid Groups",
    "link_facebook": "https://chat.whatsapp.com/GCqD2cN35DfEsJUm9KptnJ",
    "location_name": "Central London",
    "location_coord": { "lat": "51.50739069999999", "lng": "-0.1276999" }
  },
  {
    "id": "266",
    "name": "Chalford Community Support during Coronavirus",
    "link_facebook": "https://www.facebook.com/groups/845095279297402/845961222544141/?comment_id=847104012429862",
    "location_name": "Chalford, near Stroud",
    "location_coord": { "lat": "51.7216397", "lng": "-2.1567205" }
  },
  {
    "id": "267",
    "name": "Chandler’s Ford Help",
    "link_facebook": "https://www.facebook.com/groups/575699233069107/",
    "location_name": "Chandler’s Ford",
    "location_coord": { "lat": "50.983953", "lng": "-1.379259" }
  },
  {
    "id": "268",
    "name": "Chapel-en-le-Frith Covid-19 Mutual Aid",
    "link_facebook": "https://www.facebook.com/groups/220454949008858/",
    "location_name": "Chapel-en-le-Frith, Derbyshire",
    "location_coord": { "lat": "53.323988", "lng": "-1.9129233" }
  },
  {
    "id": "269",
    "name": "Greenhead Lane Neighbour Support ",
    "link_facebook": "https://www.facebook.com/groups/greenheadlane/?ref=share",
    "location_name": "Chapeltown, Sheffield ",
    "location_coord": { "lat": "53.459821", "lng": "-1.4658469" }
  },
  {
    "id": "270",
    "name": "Coronavirus support network",
    "link_facebook": "https://www.charlburycommunitycentre.org.uk/contact-us/",
    "location_name": "Charlbury",
    "location_coord": { "lat": "51.8745", "lng": "-1.479752" }
  },
  {
    "id": "271",
    "name": "Boundary Road",
    "link_facebook": "https://www.facebook.com/groups/218508972857999/",
    "location_name": "Chatham, ME4 6UW",
    "location_coord": { "lat": "51.3755594", "lng": "0.5128143" }
  },
  {
    "id": "272",
    "name": "Chelmsford community kindness",
    "link_facebook": "https://www.facebook.com/groups/216876509690115/",
    "location_name": "Chelmsford, Essex ",
    "location_coord": { "lat": "51.7355868", "lng": "0.4685497" }
  },
  {
    "id": "273",
    "name": "Chelsfield Covid 19 Aid Group",
    "link_facebook": "https://www.facebook.com/groups/2920719837986066/",
    "location_name": "Chelsfield",
    "location_coord": { "lat": "51.3562794", "lng": "0.1254019" }
  },
  {
    "id": "274",
    "name": "Cheltenham Mutual Aid for Covid 19",
    "link_facebook": "https://www.facebook.com/groups/288270262159030/",
    "location_name": "Cheltenham",
    "location_coord": { "lat": "40.0812601", "lng": "-75.1370254" }
  },
  {
    "id": "275",
    "name": "SW Cheshire “Good neighbour” Covid 19",
    "link_facebook": "https://www.facebook.com/pg/helpaneighbour/posts/",
    "location_name": "Cheshire (South West)",
    "location_coord": { "lat": "53.1792911", "lng": "-2.8880903" }
  },
  {
    "id": "276",
    "name": "Cheshunt Good Neighbours",
    "link_facebook": "https://www.facebook.com/groups/657864708310420/",
    "location_name": "Cheshunt",
    "location_coord": { "lat": "51.69988799999999", "lng": "-0.028486" }
  },
  {
    "id": "277",
    "name": "Cheshunt Good Neighbours",
    "link_facebook": "https://www.facebook.com/groups/657864708310420/",
    "location_name": "Cheshunt",
    "location_coord": { "lat": "51.69988799999999", "lng": "-0.028486" }
  },
  {
    "id": "278",
    "name": "Covid-19 Mutual Aid Group - Chessington",
    "link_facebook": "https://www.facebook.com/groups/CMA.Chessington/",
    "location_name": "Chessington",
    "location_coord": { "lat": "51.363583", "lng": "-0.296254" }
  },
  {
    "id": "279",
    "name": "Chessington Covid-19 mutual aid",
    "link_facebook": "https://www.facebook.com/groups/905678889888104/",
    "location_name": "Chessington ",
    "location_coord": { "lat": "51.363583", "lng": "-0.296254" }
  },
  {
    "id": "280",
    "name": "Chester Covid-19 Support Group",
    "link_facebook": "https://www.facebook.com/groups/2666520713576840/",
    "location_name": "Chester",
    "location_coord": { "lat": "39.849557", "lng": "-75.3557457" }
  },
  {
    "id": "281",
    "name": "Chester le Street Covid 19 Mutual Aid",
    "link_facebook": "https://www.facebook.com/groups/3802205313152978/",
    "location_name": "Chester le Street, County Durham",
    "location_coord": { "lat": "54.8591161", "lng": "-1.5740888" }
  },
  {
    "id": "282",
    "name": "Covid-19 Mutual Aid Chester",
    "link_facebook": "https://www.facebook.com/groups/235679997602200/?ref=share",
    "location_name": "Chester, Cheshire ",
    "location_coord": { "lat": "53.193392", "lng": "-2.893075" }
  },
  {
    "id": "283",
    "name": "Chesterfield Community Volunteers ",
    "link_facebook": "https://www.facebook.com/groups/209686376915676/?ref=share",
    "location_name": "Chesterfield ",
    "location_coord": { "lat": "37.3673217", "lng": "-77.6077865" }
  },
  {
    "id": "284",
    "name": "Kindness works ",
    "link_facebook": "https://m.facebook.com/groups/2361989460758159/?notif_t=groups_member_joined&notif_id=1584225147539987&ref=m_notif",
    "location_name": "Chesterfield and Sheffield ",
    "location_coord": { "lat": "53.235048", "lng": "-1.421629" }
  },
  {
    "id": "285",
    "name": "Chew valley mutual aid in covid 18 crisis ",
    "link_facebook": "https://www.facebook.com/groups/156554505471231/",
    "location_name": "Chew valley,  bs39, near Bristol ",
    "location_coord": { "lat": "51.3361723", "lng": "-2.618563" }
  },
  {
    "id": "286",
    "name": "Parishes of Chewton Mendip, Emborough, Ston Easton, Litton",
    "link_facebook": "https://www.facebook.com/groups/615655141933114/",
    "location_name": "Chewton Mendip, Somerset",
    "location_coord": { "lat": "51.27641810000001", "lng": "-2.5774668" }
  },
  {
    "id": "287",
    "name": "Chichester Area Coronavirus Support Group",
    "link_facebook": "https://www.facebook.com/groups/300874280883126/",
    "location_name": "Chichester, West Sussex",
    "location_coord": { "lat": "50.83761000000001", "lng": "-0.774936" }
  },
  {
    "id": "288",
    "name": "Chilton Mutual Aid Group",
    "link_facebook": "https://www.facebook.com/groups/201142974494761/",
    "location_name": "Chilton",
    "location_coord": { "lat": "44.0288803", "lng": "-88.16287849999999" }
  },
  {
    "id": "289",
    "name": "Chingford Corona Response ",
    "link_facebook": "https://www.facebook.com/groups/1480181068822279/",
    "location_name": "Chingford London E4 ",
    "location_coord": { "lat": "51.6320667", "lng": "0.007362700000000001" }
  },
  {
    "id": "290",
    "name": "Chippenham Neighbourhood Corona Help Group",
    "link_facebook": "https://www.facebook.com/groups/494005657960207/",
    "location_name": "Chippenham",
    "location_coord": { "lat": "51.461514", "lng": "-2.1195157" }
  },
  {
    "id": "291",
    "name": "Chipping Norton & villages Covid 19 community help and support 💚",
    "link_facebook": "https://www.facebook.com/groups/2565957793675078/",
    "location_name": "Chipping Norton and surrounding villages, Oxfordshire ",
    "location_coord": { "lat": "51.943544", "lng": "-1.542189" }
  },
  {
    "id": "292",
    "name": "Chirk Coronavirus Support",
    "link_facebook": "https://www.facebook.com/ChirkCoronavirusSupport/",
    "location_name": "Chirk, Wrexham",
    "location_coord": { "lat": "52.9322792", "lng": "-3.0567818" }
  },
  {
    "id": "293",
    "name": "Chislehurst and New Eltham Gossip Girls",
    "link_facebook": "https://www.facebook.com/groups/148011585380592/",
    "location_name": "Chislehurst, Kent",
    "location_coord": { "lat": "51.412626", "lng": "0.077487" }
  },
  {
    "id": "294",
    "name": "Chiswick COVID-19 Mutual Aid",
    "link_facebook": "https://www.facebook.com/groups/546580412924330/",
    "location_name": "Chiswick",
    "location_coord": { "lat": "51.4876272", "lng": "-0.2671732" }
  },
  {
    "id": "295",
    "name": "Chobham and Windlesham Covid-19 Volunteering",
    "link_facebook": "https://www.facebook.com/chobhamparish/",
    "location_name": "Chobham and Windlesham, Surrey",
    "location_coord": { "lat": "51.36456099999999", "lng": "-0.665847" }
  },
  {
    "id": "296",
    "name": "Coronavirus Support in Chobham",
    "link_facebook": "https://nextdoor.co.uk/news_feed/?post=17592193474174",
    "location_name": "Chobham, Surrey",
    "location_coord": { "lat": "51.348056", "lng": "-0.603858" }
  },
  {
    "id": "297",
    "name": "Chopwell Regeneration Group",
    "link_facebook": "http://www.chopwell.org/",
    "location_name": "Chopwell, Gateshead",
    "location_coord": { "lat": "54.918299", "lng": "-1.822439" }
  },
  {
    "id": "298",
    "name": "CW Corona Support Group",
    "link_facebook": "https://chat.whatsapp.com/BkGNMZleHuo8O9t18jy5Tw",
    "location_name": "Chorleywood",
    "location_coord": { "lat": "51.655632", "lng": "-0.5161829" }
  },
  {
    "id": "299",
    "name": "Chorlton Coronavirus Community Response",
    "link_facebook": "https://www.facebook.com/groups/2601470623444655",
    "location_name": "Chorlton, Manchester.",
    "location_coord": { "lat": "53.444858", "lng": "-2.27829" }
  },
  {
    "id": "300",
    "name": "Cimla Covid-19 Support Group",
    "link_facebook": "https://m.facebook.com/groups/198095591510088?tsid=0.3603471496901902&source=result",
    "location_name": "Cimla",
    "location_coord": { "lat": "51.6529998", "lng": "-3.7811149" }
  },
  {
    "id": "301",
    "name": "City of London Covid 19 Mutual Aid",
    "link_facebook": "https://www.facebook.com/groups/citymutualaid/",
    "location_name": "City of London, London",
    "location_coord": { "lat": "51.5123443", "lng": "-0.0909852" }
  },
  {
    "id": "302",
    "name": "Clacks Together - Coronavirus",
    "link_facebook": "https://www.facebook.com/groups/670174510477633/",
    "location_name": "Clackmannanshire",
    "location_coord": { "lat": "56.1075351", "lng": "-3.7529409" }
  },
  {
    "id": "303",
    "name": "Coronavirus helpers group Clanfield Oxfordshire ",
    "link_facebook": "https://m.facebook.com/groups/251860565812853?tsid=0.3772527539640925&source=result",
    "location_name": "Clanfield Oxfordshire ",
    "location_coord": { "lat": "51.7131433", "lng": "-1.5893782" }
  },
  {
    "id": "304",
    "name": "Clanfield Corona Community Support",
    "link_facebook": "https://www.facebook.com/groups/791443838049404/?ref=share",
    "location_name": "Clanfield, Hampshire",
    "location_coord": { "lat": "50.9355606", "lng": "-1.0000067" }
  },
  {
    "id": "305",
    "name": "Clapham Covid 19 Mutual Aid",
    "link_facebook": "https://www.facebook.com/groups/334284577530277/",
    "location_name": "Clapham, London, UK",
    "location_coord": { "lat": "51.4658813", "lng": "-0.1413263" }
  },
  {
    "id": "306",
    "name": "Clapham Yorks Covid Community Help",
    "link_facebook": "https://www.facebook.com/coronaCcN/?modal=admin_todo_tour",
    "location_name": "Clapham, Yorkshire",
    "location_coord": { "lat": "54.117739", "lng": "-2.3925411" }
  },
  {
    "id": "307",
    "name": "Beaconsfield Road Area Help",
    "link_facebook": "https://chat.whatsapp.com/HWMU6iD10Xd8KPaZ6vhvC7",
    "location_name": "Claygate, Surrey",
    "location_coord": { "lat": "51.360219", "lng": "-0.340969" }
  },
  {
    "id": "308",
    "name": "Claygate/Esher Coronavirus Community Response Group (CCRG)",
    "link_facebook": "https://www.facebook.com/groups/1292783587598198/",
    "location_name": "Claygate/Esher",
    "location_coord": { "lat": "51.360219", "lng": "-0.340969" }
  },
  {
    "id": "309",
    "name": "Claygate/Esher Coronavirus Community Response Group (CCRG)",
    "link_facebook": "https://www.facebook.com/groups/1292783587598198/",
    "location_name": "Claygate/Esher ",
    "location_coord": { "lat": "51.360219", "lng": "-0.340969" }
  },
  {
    "id": "310",
    "name": "Cleator and Cleator Moor",
    "link_facebook": "https://m.facebook.com/groups/198648301365456?group_view_referrer=profile_browser",
    "location_name": "Cleator Moor",
    "location_coord": { "lat": "54.52190599999999", "lng": "-3.517168" }
  },
  {
    "id": "311",
    "name": "Cleeve Prior Covid-19 Mutual Aid Group",
    "link_facebook": "https://m.facebook.com/groups/2848035108618632/?notif_t=groups_member_joined&notif_id=1584394996367643&ref=m_notif",
    "location_name": "Cleeve Prior",
    "location_coord": { "lat": "52.1403031", "lng": "-1.872127" }
  },
  {
    "id": "312",
    "name": "Clevedon Coronavirus Community",
    "link_facebook": "https://www.facebook.com/groups/3127469410597746/",
    "location_name": "Clevedon, North Somerset",
    "location_coord": { "lat": "51.4284337", "lng": "-2.8280061" }
  },
  {
    "id": "313",
    "name": "Clifton Hill Helpers",
    "link_facebook": "https://www.facebook.com/profile.php?id=100048961565180",
    "location_name": "Clifton Upon Teme ",
    "location_coord": { "lat": "52.25169589999999", "lng": "-2.4207694" }
  },
  {
    "id": "314",
    "name": "Cliftonville Mutual Aid",
    "link_facebook": "https://www.facebook.com/groups/204368487322095/",
    "location_name": "Cliftonville, Margate",
    "location_coord": { "lat": "51.390955", "lng": "1.406638" }
  },
  {
    "id": "315",
    "name": "Covid-19 Community Support - Bessbrook Camlough and surrounding areas",
    "link_facebook": "https://www.facebook.com/groups/203529607756722/",
    "location_name": "Co.Down",
    "location_coord": { "lat": "54.32769870000001", "lng": "-5.715766700000001" }
  },
  {
    "id": "316",
    "name": "Coaley Parish Council, coronavirus support",
    "link_facebook": "http://www.coaleypc.org.uk/",
    "location_name": "Coaley, Gloucestershire",
    "location_coord": { "lat": "51.7124207", "lng": "-2.3312412" }
  },
  {
    "id": "317",
    "name": "Covid 19 Kirkwood Community Aid",
    "link_facebook": "https://www.facebook.com/groups/2540491152832652/",
    "location_name": "Coatbridge",
    "location_coord": { "lat": "55.862241", "lng": "-4.019337" }
  },
  {
    "id": "318",
    "name": "Cockermouth Covid-19 Mutual Aid Group",
    "link_facebook": "https://www.facebook.com/groups/1369318873253390/",
    "location_name": "Cockermouth, West Cumbria",
    "location_coord": { "lat": "54.66337679999999", "lng": "-3.3677541" }
  },
  {
    "id": "319",
    "name": "Cockernhoe Mutual Aid Group ",
    "link_facebook": "https://www.facebook.com/groups/2080226312236699/?ref=share",
    "location_name": "Cockernhoe and Mangrove Green",
    "location_coord": { "lat": "51.90147580000001", "lng": "-0.3681941" }
  },
  {
    "id": "320",
    "name": "Cockwood Support Network",
    "link_facebook": "https://www.facebook.com/groups/203813730849039/",
    "location_name": "Cockwood, Exeter",
    "location_coord": { "lat": "50.615488", "lng": "-3.448586" }
  },
  {
    "id": "321",
    "name": "Codsall & Bilbrook COVID 19 Help & Info",
    "link_facebook": "https://www.facebook.com/groups/846058719208543/?ref=share",
    "location_name": "Codsall Wolverhampton ",
    "location_coord": { "lat": "52.628089", "lng": "-2.192079" }
  },
  {
    "id": "322",
    "name": "Colby Road Helping Hands",
    "link_facebook": "https://www.facebook.com/groups/colbyroadblog/",
    "location_name": "Colby Road, SE19 1HA",
    "location_coord": { "lat": "51.4240778", "lng": "-0.0815776" }
  },
  {
    "id": "323",
    "name": "Focus",
    "link_facebook": "https://www.facebook.com/groups/193105135462774/?ref=share",
    "location_name": "Colchester",
    "location_coord": { "lat": "51.895927", "lng": "0.8918740000000001" }
  },
  {
    "id": "324",
    "name": "New Town, Old Heath & Hythe Mutual Aid Group",
    "link_facebook": "https://www.facebook.com/groups/1327010757482885/",
    "location_name": "Colchester",
    "location_coord": { "lat": "51.895927", "lng": "0.8918740000000001" }
  },
  {
    "id": "325",
    "name": "Colchesters anti loo roll brigade",
    "link_facebook": "https://www.facebook.com/groups/202461331008256/",
    "location_name": "Colchester ",
    "location_coord": { "lat": "51.895927", "lng": "0.8918740000000001" }
  },
  {
    "id": "326",
    "name": "Neighbours Information Colchester Essex (NICE)",
    "link_facebook": "https://www.facebook.com/groups/2669752193122535/?ref=share",
    "location_name": "Colchester Essex ",
    "location_coord": { "lat": "51.895927", "lng": "0.8918740000000001" }
  },
  {
    "id": "327",
    "name": "Colchester Emergency Coordinations Group",
    "link_facebook": "https://www.facebook.com/groups/551969565422044/?ref=share",
    "location_name": "Colchester, north Essex",
    "location_coord": { "lat": "51.895927", "lng": "0.8918740000000001" }
  },
  {
    "id": "328",
    "name": "Colindale (NW9) Covid-19 Mutual Aid",
    "link_facebook": "https://chat.whatsapp.com/Hc7dWOnMArWKYkMBnRJzX5?fbclid=IwAR21zKncAF1C8Iq7OYyZyg28kWppofeAmKJjjb6T8HuVvkTVgI9E3MMJ1cA",
    "location_name": "Colindale Ward, Barnet  (NW9 postcode)",
    "location_coord": { "lat": "51.5896908", "lng": "-0.2491029" }
  },
  {
    "id": "329",
    "name": "colliers wood news & views",
    "link_facebook": "https://www.facebook.com/groups/ColliersWood/",
    "location_name": "Colliers Wood London",
    "location_coord": { "lat": "51.41704439999999", "lng": "-0.1778555" }
  },
  {
    "id": "330",
    "name": "Colmworth CHI",
    "link_facebook": "https://www.facebook.com/groups/592966014070985/",
    "location_name": "Colmworth, Bedfordshire",
    "location_coord": { "lat": "52.213997", "lng": "-0.381438" }
  },
  {
    "id": "331",
    "name": "Colmworth CHI",
    "link_facebook": "https://www.facebook.com/groups/592966014070985/?multi_permalinks=3109372595763635%2C3106439489390279%2C3109138802453681%2C3108814069152821%2C3106936389340589&notif_id=1584293017296654&notif_t=group_activity",
    "location_name": "Colmworth, Bedfordshire, UK",
    "location_coord": { "lat": "52.213997", "lng": "-0.381438" }
  },
  {
    "id": "332",
    "name": "Colwyn Bay Covid-19 Action Network",
    "link_facebook": "https://www.facebook.com/groups/2505072983068360/",
    "location_name": "Colwyn Bay",
    "location_coord": { "lat": "53.29318199999999", "lng": "-3.72764" }
  },
  {
    "id": "333",
    "name": "Coney Hall, Bromley - Covid-19 Mutual Aid",
    "link_facebook": "https://www.facebook.com/groups/1156327308122999/",
    "location_name": "Coney Hall, Bromley",
    "location_coord": { "lat": "51.3711435", "lng": "-0.0014082" }
  },
  {
    "id": "334",
    "name": "Congleton Macclesfield Stoke-on-Trent Coronavirus News and Support Group",
    "link_facebook": "https://www.facebook.com/groups/564073557788573/",
    "location_name": "Congleton",
    "location_coord": { "lat": "35.599472", "lng": "-77.33095999999999" }
  },
  {
    "id": "335",
    "name": "Congleton coronavirus (Covid 19) community support group",
    "link_facebook": "https://www.facebook.com/groups/660725094775160/?ref=share",
    "location_name": "Congleton cheshire",
    "location_coord": { "lat": "53.162856", "lng": "-2.218923" }
  },
  {
    "id": "336",
    "name": "Cononley Parish Council Coronavirus Help Group",
    "link_facebook": "https://www.cononleypc.org.uk/",
    "location_name": "Cononley, Keighley, North Yorkshire ",
    "location_coord": { "lat": "53.91957499999999", "lng": "-2.018779" }
  },
  {
    "id": "337",
    "name": "Consett Coronavirus Help",
    "link_facebook": "https://www.facebook.com/groups/255462912147617/",
    "location_name": "Consett, Co Durham",
    "location_coord": { "lat": "54.851797", "lng": "-1.833026" }
  },
  {
    "id": "338",
    "name": "Coronavirus community help East Dorset",
    "link_facebook": "https://www.facebook.com/groups/212532173138319/ ",
    "location_name": "Corfe Mullen Wimborne Merley",
    "location_coord": { "lat": "50.7812812", "lng": "-2.0115082" }
  },
  {
    "id": "339",
    "name": "Cornwall Labour Corona Virus Volunteers and Support",
    "link_facebook": "https://www.facebook.com/groups/2316077438693649/about/",
    "location_name": "Cornwall",
    "location_coord": { "lat": "50.26604709999999", "lng": "-5.0527125" }
  },
  {
    "id": "340",
    "name": "Coronaviral",
    "link_facebook": "https://www.facebook.com/groups/498417357491429/",
    "location_name": "Cornwall",
    "location_coord": { "lat": "50.26604709999999", "lng": "-5.0527125" }
  },
  {
    "id": "341",
    "name": "Katherine Park Covid-19 Mutual Aid Group ",
    "link_facebook": "https://m.facebook.com/groups/493435171331301?ref=m_notif&notif_t=feedback_reaction_generic",
    "location_name": "Corsham ",
    "location_coord": { "lat": "51.43144299999999", "lng": "-2.189674" }
  },
  {
    "id": "342",
    "name": "Corsley Support Hub",
    "link_facebook": "https://www.facebook.com/groups/157309328299692/",
    "location_name": "Corsley",
    "location_coord": { "lat": "51.2192351", "lng": "-2.2465508" }
  },
  {
    "id": "343",
    "name": "Community Run Support Cosby",
    "link_facebook": "https://www.facebook.com/groups/569175410618065/?ref=share",
    "location_name": "Cosby, Leicester ",
    "location_coord": { "lat": "52.5522461", "lng": "-1.1939429" }
  },
  {
    "id": "344",
    "name": "Cottingham COVID-19 Support Group - Volunteers",
    "link_facebook": "https://www.facebook.com/groups/cottinghamiskind/",
    "location_name": "Cottingham",
    "location_coord": { "lat": "35.1494177", "lng": "-80.8245869" }
  },